City_ID,City,Lat,Lng,Max Temp,Humidity,Cloudiness,Wind Speed,Country,Date
0,grytviken,-54.2811,-36.5092,1.66,98,100,3.31,GS,1699934977
1,juneau,58.3019,-134.4197,2.0,95,100,9.26,US,1699935502
2,dunedin,-45.8742,170.5036,16.56,64,100,1.34,NZ,1699935369
3,waitangi,-43.9535,-176.5597,16.01,84,8,2.24,NZ,1699934906
4,bridgewater,44.3835,-64.5155,-0.18,91,9,3.6,CA,1699935502
5,luderitz,-26.6481,15.1594,15.9,75,0,2.49,NA,1699935378
6,ribeira grande,38.5167,-28.7,15.99,83,100,3.58,PT,1699935503
7,bakanas,44.8081,76.2772,4.11,62,0,5.95,KZ,1699935503
8,ust-nera,64.5667,143.2,-28.44,98,55,2.41,RU,1699935503
9,kavaratti,10.5669,72.642,27.58,70,63,1.13,IN,1699935504
10,yellowknife,62.456,-114.3525,-3.71,86,100,5.66,CA,1699935287
11,novohrad-volynskyi,50.5941,27.6165,2.07,88,67,3.81,UA,1699935504
12,ponta delgada,37.7333,-25.6667,18.4,88,20,1.79,PT,1699935487
13,alto araguaia,-17.3147,-53.2153,25.43,38,41,1.21,BR,1699935505
14,west island,-12.1568,96.8225,28.99,70,40,5.66,CC,1699935180
15,blackmans bay,-43.0167,147.3167,16.4,54,12,5.03,AU,1699935000
16,qutqashen,40.9814,47.8458,2.11,52,79,1.53,AZ,1699935506
17,puerto natales,-51.7236,-72.4875,0.85,83,81,4.47,CL,1699934966
18,salinas,36.6777,-121.6555,13.05,87,20,3.09,US,1699935121
19,san antonio de pale,-1.4014,5.6325,26.13,79,19,3.07,GQ,1699935395
20,al abyar,32.19,20.5965,15.88,78,3,3.39,LY,1699935507
21,kupang,-10.1667,123.5833,30.32,84,75,3.09,ID,1699935507
22,thompson,55.7435,-97.8558,-2.91,93,75,1.54,CA,1699935507
23,castro-urdiales,43.3829,-3.2204,21.12,89,89,1.9,ES,1699935507
24,port-aux-francais,-49.35,70.2167,6.46,97,100,15.14,TF,1699934921
25,albu kamal,34.45,40.9186,22.22,27,96,4.82,SY,1699935508
26,longyearbyen,78.2186,15.6401,-11.09,79,75,2.57,SJ,1699935125
27,wailua homesteads,22.0669,-159.378,27.24,81,20,7.72,US,1699934959
28,hithadhoo,-0.6,73.0833,27.52,79,57,4.64,MV,1699935143
29,talnakh,69.4865,88.3972,-21.59,96,40,2.74,RU,1699934914
30,tiksi,71.6872,128.8694,-14.58,94,100,1.94,RU,1699935088
31,vila franca do campo,37.7167,-25.4333,18.23,99,81,2.6,PT,1699934913
32,vieux-habitants,16.0589,-61.7659,25.76,78,55,5.62,GP,1699935510
33,nabire,-3.3667,135.4833,32.39,53,56,2.35,ID,1699935510
34,hawaiian paradise park,19.5933,-154.9731,22.73,94,40,2.06,US,1699935167
35,adamstown,-25.066,-130.1015,22.94,86,100,8.02,PN,1699935005
36,agat village,13.3886,144.6585,31.52,74,20,9.77,GU,1699935511
37,kalmunai,7.4167,81.8167,27.91,77,62,1.66,LK,1699934961
38,codrington,-38.2667,141.9667,15.85,61,100,4.54,AU,1699935166
39,lihue,21.9789,-159.3672,27.58,75,20,7.72,US,1699935096
40,williston,48.147,-103.618,7.4,48,100,3.09,US,1699935512
41,mukalla,14.5425,49.1242,25.76,72,36,1.66,YE,1699935512
42,freetown,8.484,-13.2299,26.0,88,8,1.34,SL,1699935512
43,minas de marcona,-15.2119,-75.1103,13.78,87,65,6.15,PE,1699935279
44,touros,-5.1989,-35.4608,26.33,79,76,5.2,BR,1699935513
45,bethel,41.3712,-73.414,3.85,82,0,1.54,US,1699935051
46,weno,7.4515,151.8468,28.5,73,97,2.28,FM,1699935200
47,qaqortoq,60.7167,-46.0333,-6.93,94,95,1.61,GL,1699935215
48,kapa'a,22.0752,-159.319,27.99,81,20,7.72,US,1699935445
49,fale old settlement,-9.3852,-171.2468,26.45,84,100,0.73,TK,1699935514
50,georgetown,5.4112,100.3354,31.64,74,20,3.09,MY,1699935009
51,albany,42.6001,-73.9662,1.48,87,72,0.88,US,1699934844
52,ketchikan,55.3422,-131.6461,4.99,87,40,2.57,US,1699935514
53,port alfred,-33.5906,26.891,13.99,95,79,5.57,ZA,1699935223
54,college,64.8569,-147.8028,-3.03,91,100,0.0,US,1699934968
55,khovd,48.0056,91.6419,-2.46,74,100,1.26,MN,1699935515
56,puerto ayora,-0.7393,-90.3518,23.08,100,78,2.24,EC,1699934970
57,puli,23.9664,120.9695,24.01,58,88,2.13,TW,1699935516
58,saipan,15.1355,145.701,31.39,66,40,8.75,MP,1699934984
59,jakobstad,63.6749,22.7026,-1.71,80,100,6.22,FI,1699935516
60,beira,-19.8436,34.8389,26.05,94,75,6.17,MZ,1699935516
61,tura,25.5198,90.2201,25.81,60,18,0.65,IN,1699935231
62,egersund,58.4513,5.9997,5.05,61,100,9.47,NO,1699935517
63,vyaz'ma,55.2104,34.2951,2.14,97,100,4.28,RU,1699935517
64,nemuro,43.3236,145.575,5.22,51,16,9.84,JP,1699935260
65,port elizabeth,-33.918,25.5701,16.84,79,75,5.14,ZA,1699935179
66,sadri,25.1833,73.4333,24.65,28,100,0.57,IN,1699935518
67,stanley,54.868,-1.6985,7.06,92,20,3.09,GB,1699935053
68,singaraja,-8.112,115.0882,29.96,71,50,1.02,ID,1699935518
69,hasaki,35.7333,140.8333,17.22,33,0,1.56,JP,1699935415
70,al ghayzah,16.2079,52.176,25.87,69,100,1.53,YE,1699935519
71,sangaria,29.8,74.45,22.12,37,97,1.42,IN,1699935519
72,klyuchi,52.2667,79.1667,3.74,87,92,3.83,RU,1699935318
73,buarcos,40.166,-8.8768,14.26,92,43,3.69,PT,1699935520
74,kutahya,39.4242,29.9833,7.89,89,70,0.98,TR,1699935520
75,petropavlovsk-kamchatsky,53.0452,158.6483,-3.08,74,0,12.52,RU,1699935172
76,lompoc,34.6391,-120.4579,13.29,87,0,3.6,US,1699935149
77,margaret river,-33.95,115.0667,20.27,63,100,5.07,AU,1699935154
78,prince rupert,54.3161,-130.3201,7.05,67,75,5.14,CA,1699935521
79,whitehorse,60.7161,-135.0538,-4.83,85,100,2.24,CA,1699934839
80,santa elena de uairen,4.6167,-61.1333,20.95,68,58,1.58,VE,1699935211
81,east london,-33.0153,27.9116,14.52,94,75,1.54,ZA,1699935161
82,namibe,-15.1961,12.1522,22.44,67,97,2.16,AO,1699935405
83,margate,51.3813,1.3862,13.28,81,72,4.92,GB,1699935522
84,kill devil hills,36.0307,-75.676,10.01,80,0,1.54,US,1699935522
85,guaiba,-30.1139,-51.325,21.64,93,0,2.06,BR,1699935523
86,olonkinbyen,70.9221,-8.7187,-1.37,76,98,3.77,SJ,1699935324
87,port-cartier,50.0334,-66.8654,-4.18,91,85,1.76,CA,1699935523
88,hamilton,39.1834,-84.5333,9.98,55,20,0.45,US,1699935350
89,cotoca,-17.8167,-63.05,27.92,47,81,4.32,BO,1699935524
90,dudinka,69.4058,86.1778,-24.91,95,17,1.44,RU,1699935323
91,isafjordur,66.0755,-23.124,1.5,86,40,2.95,IS,1699935524
92,el calafate,-50.3408,-72.2768,2.76,63,82,5.25,AR,1699935471
93,tucupita,9.0622,-62.051,24.15,96,74,2.05,VE,1699935525
94,udachny,66.4167,112.4,-6.97,85,100,3.76,RU,1699935525
95,venancio aires,-29.6064,-52.1919,21.81,99,100,0.77,BR,1699935281
96,al mutayrifi,25.4788,49.5576,21.19,65,8,0.56,SA,1699935525
97,tolanaro,-25.0319,46.9987,24.13,69,26,2.79,MG,1699935503
98,xilin hot,43.9667,116.0333,-2.08,58,10,4.62,CN,1699935286
99,constantia,44.1833,28.65,4.28,62,58,4.16,RO,1699935028
100,tchintabaraden,15.8969,5.7985,21.51,15,1,4.36,NE,1699935526
101,san felipe,10.3399,-68.7425,22.88,98,99,0.8,VE,1699935527
102,kavieng,-2.5744,150.7967,28.94,66,59,1.77,PG,1699935527
103,avarua,-21.2078,-159.775,23.03,64,75,4.63,CK,1699935116
104,metlili chaamba,32.2667,3.6333,12.52,50,0,0.0,DZ,1699935527
105,colesberg,-30.72,25.0972,10.28,68,0,4.29,ZA,1699935528
106,shahrud,36.4182,54.9763,12.16,46,99,0.89,IR,1699935528
107,natal,-5.795,-35.2094,26.36,83,40,3.6,BR,1699935342
108,valday,57.9747,33.2525,1.13,97,100,4.02,RU,1699935528
109,nouadhibou,20.931,-17.0347,19.99,56,14,5.14,MR,1699935529
110,invercargill,-46.4,168.35,10.57,91,89,9.83,NZ,1699934925
111,khark,29.2614,50.3306,24.01,78,31,0.0,IR,1699935529
112,ushuaia,-54.8,-68.3,0.81,75,0,2.06,AR,1699934864
113,meadow lakes,61.6247,-149.6011,-5.15,93,0,1.54,US,1699935442
114,matam,15.6175,-13.3303,26.83,11,80,5.04,SN,1699935530
115,george town,5.4112,100.3354,30.96,74,20,3.09,MY,1699935405
116,lebu,-37.6167,-73.65,9.1,89,34,3.52,CL,1699935086
117,san angelo,31.4638,-100.437,11.12,93,100,1.54,US,1699935530
118,papatowai,-46.5619,169.4708,15.69,56,59,6.96,NZ,1699934986
119,los llanos de aridane,28.6585,-17.9182,22.85,32,0,4.12,ES,1699935531
120,iqaluit,63.7506,-68.5145,-17.95,64,11,1.79,CA,1699934945
121,nurota,40.5614,65.6886,11.4,26,45,1.91,UZ,1699935531
122,geoktschai,40.6531,47.7406,6.42,93,75,0.0,AZ,1699935531
123,edinburgh of the seven seas,-37.0676,-12.3116,13.53,78,11,11.8,SH,1699934958
124,mount gambier,-37.8333,140.7667,17.43,51,100,3.13,AU,1699935532
125,cambria,35.5641,-121.0808,12.64,91,55,1.79,US,1699935532
126,al mijlad,11.0333,27.7333,30.59,28,83,3.93,SD,1699935533
127,jamestown,42.097,-79.2353,7.77,67,0,5.66,US,1699935213
128,murghob,38.1702,73.9667,-8.85,52,0,1.2,TJ,1699935533
129,new norfolk,-42.7826,147.0587,17.06,29,4,2.73,AU,1699935019
130,skikda,36.8762,6.9092,17.59,61,3,1.72,DZ,1699935534
131,alakurtti,66.9672,30.3491,-15.39,99,90,1.96,RU,1699935534
132,inhambane,-23.865,35.3833,22.99,60,75,7.2,MZ,1699935534
133,kingston,17.997,-76.7936,28.53,79,20,1.54,JM,1699934774
134,waddan,29.1614,16.139,16.71,88,48,2.94,LY,1699935535
135,valdivia,-39.8142,-73.2459,7.05,97,12,0.49,CL,1699935535
136,sechura,-5.5569,-80.8222,20.78,78,11,6.11,PE,1699935535
137,swift current,50.2834,-107.8014,5.45,60,0,8.23,CA,1699935536
138,san luis de la loma,17.2706,-100.8939,26.6,83,36,2.63,MX,1699935536
139,cabo san lucas,22.8909,-109.9124,27.09,62,20,1.66,MX,1699934878
140,velika kladusa,45.1894,15.8117,13.75,86,100,3.26,BA,1699935536
141,hirara,24.8,125.2833,24.15,57,75,6.69,JP,1699935500
142,arraial do cabo,-22.9661,-42.0278,23.45,91,57,5.92,BR,1699935537
143,pontes e lacerda,-15.2261,-59.3353,25.09,71,34,0.98,BR,1699935537
144,hanting,36.7708,119.2108,9.21,21,61,1.39,CN,1699935538
145,borogontsy,62.6683,131.1683,-20.77,96,98,1.35,RU,1699935538
146,sandnessjoen,66.0217,12.6316,-12.71,63,28,4.34,NO,1699935538
147,seybaplaya,19.65,-90.6667,24.7,85,87,3.78,MX,1699935492
148,azadshahr,34.7909,48.5707,1.27,87,0,1.03,IR,1699935539
149,tshikapa,-6.4167,20.8,19.9,95,100,0.99,CD,1699935539
150,greymouth,-42.4667,171.2,12.37,92,100,4.23,NZ,1699935539
151,tatsinskiy,48.1968,41.2756,6.52,92,100,1.64,RU,1699935540
152,afaahiti,-17.75,-149.2833,26.93,90,95,6.49,PF,1699935257
153,remire-montjoly,4.9167,-52.2667,25.02,94,0,0.0,GF,1699935540
154,ahar,38.4774,47.0699,10.14,54,53,2.97,IR,1699935540
155,ust'-kut,56.7938,105.7672,-1.98,89,100,4.92,RU,1699935541
156,kerikeri,-35.2268,173.9474,14.29,87,100,4.05,NZ,1699935475
157,pervomayskoye,43.919,46.7102,10.99,95,53,4.9,RU,1699935541
158,malango,-2.9627,119.9001,31.0,39,12,1.75,ID,1699935541
159,carlos a. carrillo,18.3667,-95.75,23.1,89,94,4.36,MX,1699935542
160,gursarai,25.6148,79.1788,23.67,38,100,1.11,IN,1699935542
161,ilulissat,69.2167,-51.1,-4.99,68,100,4.12,GL,1699935118
162,bandarbeyla,9.4942,50.8122,27.18,79,89,7.4,SO,1699935520
163,broome,42.2506,-75.833,4.21,81,40,2.57,US,1699935543
164,zhangye,38.9342,100.4517,4.94,26,71,6.72,CN,1699935543
165,great bend,38.3645,-98.7648,11.13,73,0,4.12,US,1699935459
166,hermanus,-34.4187,19.2345,14.7,82,57,7.47,ZA,1699935291
167,balabac,7.9868,117.0645,29.81,73,71,5.7,PH,1699935544
168,zhaotong,27.3167,103.7167,12.28,75,94,0.75,CN,1699935398
169,manokwari,-0.8667,134.0833,28.77,75,86,3.11,ID,1699935544
170,liwale,-9.7667,37.9333,23.64,84,97,1.46,TZ,1699935545
171,atafu village,-8.5421,-172.5159,26.82,87,100,5.58,TK,1699935164
172,gwadar,25.1216,62.3254,25.78,53,30,4.32,PK,1699935545
173,lamu,-2.2717,40.902,26.12,81,41,2.5,KE,1699935545
174,fada,9.5667,8.3,22.57,25,100,1.83,NG,1699935546
175,altai,46.3722,96.2583,-8.0,86,100,4.03,MN,1699935546
176,vorgashor,67.5833,63.95,-12.39,88,100,3.89,RU,1699935196
177,nar'yan-mar,67.6713,53.087,-7.72,96,100,4.02,RU,1699935109
178,chonchi,-42.6128,-73.8092,3.56,92,79,1.49,CL,1699935262
179,kamina,-8.7386,24.9906,17.92,99,100,1.9,CD,1699935547
180,bredasdorp,-34.5322,20.0403,14.86,82,35,7.47,ZA,1699934973
181,merke,42.8728,73.1786,7.23,45,0,2.94,KZ,1699935547
182,keflavik,64.0049,-22.5624,7.24,65,75,6.69,IS,1699935226
183,hami,42.8,93.45,5.96,26,63,1.92,CN,1699935548
184,hovd,48.0056,91.6419,-2.46,74,100,1.26,MN,1699935548
185,tsiombe,-25.3,45.4833,22.37,78,91,3.95,MG,1699935485
186,creel,27.75,-107.6333,6.21,82,0,3.47,MX,1699935549
187,acarau,-2.8856,-40.12,26.4,78,92,6.34,BR,1699935549
188,paradip garh,20.3167,86.6167,26.6,56,83,5.76,IN,1699935549
189,horta,38.5333,-28.6333,15.57,83,100,3.58,PT,1699935355
190,sydney mines,46.2367,-60.2177,2.22,87,100,2.57,CA,1699935550
191,colonia,50.9333,6.95,12.46,75,75,6.69,DE,1699935200
192,altay,47.8667,88.1167,-2.82,75,61,1.06,CN,1699935383
193,ballina,-28.8667,153.5667,23.62,70,43,6.32,AU,1699935254
194,port douglas,-16.4833,145.4667,26.54,56,28,4.54,AU,1699934777
195,ulladulla,-35.35,150.4667,20.09,70,97,4.04,AU,1699935551
196,soe,-9.8607,124.284,31.84,35,15,4.27,ID,1699935551
197,kataba,13.9833,44.3833,16.01,51,82,1.27,YE,1699935552
198,bilibino,68.0546,166.4372,-29.18,100,100,1.0,RU,1699935129
199,tomatlan,19.9333,-105.25,24.3,85,8,1.16,MX,1699935552
200,tual,-5.6667,132.75,27.88,73,48,3.24,ID,1699935553
201,canto do buriti,-8.11,-42.9444,24.66,39,0,0.35,BR,1699935553
202,nova sintra,14.8667,-24.7167,23.78,72,100,5.57,CV,1699935032
203,xiongzhou,25.1167,114.3,10.7,82,99,1.26,CN,1699935554
204,lincoln,40.8,-96.667,13.9,48,0,4.12,US,1699935434
205,susuman,62.7833,148.1667,-29.41,98,74,0.62,RU,1699935056
206,puerto aysen,-45.4,-72.7,2.06,99,100,2.23,CL,1699935554
207,dorado,18.4588,-66.2677,26.94,95,13,3.52,PR,1699935555
208,tralee,52.2704,-9.7026,10.43,89,100,5.45,IE,1699935537
209,sooke,48.3746,-123.7276,7.76,85,2,1.03,CA,1699935555
210,bali chak,22.3667,87.55,26.08,50,94,3.1,IN,1699935556
211,trelissac,45.1977,0.7862,16.79,93,100,3.41,FR,1699935556
212,urangan,-25.3,152.9,24.18,70,0,7.22,AU,1699935557
213,queenstown,-31.8976,26.8753,10.36,80,85,3.32,ZA,1699935226
214,imola,44.3523,11.7158,18.41,75,100,1.74,IT,1699935557
215,sabzevar,36.2126,57.6819,7.6,53,0,3.09,IR,1699935557
216,al kharijah,25.4514,30.5464,20.89,55,1,4.11,EG,1699935558
217,pisco,-13.7,-76.2167,18.9,88,6,0.0,PE,1699935347
218,coquimbo,-29.9533,-71.3436,13.85,82,1,2.06,CL,1699935558
219,kedougou,12.5579,-12.1743,22.05,26,82,1.52,SN,1699935367
220,navojoa,27.1,-109.4333,23.34,55,5,0.89,MX,1699935381
221,vilyuchinsk,52.9306,158.4028,-2.26,71,100,2.69,RU,1699935236
222,sitka,57.0531,-135.33,4.94,87,100,3.6,US,1699935176
223,conception bay south,47.4999,-52.9981,-0.05,81,76,2.04,CA,1699935454
224,sahy,48.0741,18.9495,8.61,95,100,1.86,SK,1699935560
225,neyriz,29.1988,54.3278,14.58,20,27,1.53,IR,1699935560
226,dwarka,22.2394,68.9678,27.68,38,26,6.24,IN,1699935560
227,fada n'gourma,12.0622,0.3578,24.05,16,42,4.16,BF,1699935561
228,mulchen,-37.7167,-72.2333,5.52,96,31,1.65,CL,1699935561
229,berdyansk,46.7503,36.7944,7.05,78,86,1.74,UA,1699935561
230,selfoss,63.9331,-20.9971,6.14,75,78,8.0,IS,1699935561
231,kuytun,54.3419,101.5036,-1.6,79,100,2.32,RU,1699935562
232,el porvenir,13.7617,-87.3458,23.63,95,100,2.31,HN,1699935562
233,gulf shores,30.246,-87.7008,16.03,82,75,3.6,US,1699935562
234,la passe,45.5549,-0.8967,15.13,90,100,3.98,FR,1699935562
235,ilha de mocambique,-15.0342,40.7358,26.22,80,100,5.76,MZ,1699935563
236,rongelap,11.1635,166.8941,27.93,82,100,7.96,MH,1699935563
237,kaduna,10.5222,7.4383,23.52,22,100,2.31,NG,1699935563
238,birine,35.635,3.225,12.62,49,2,1.45,DZ,1699935564
239,olinda,-8.0089,-34.8553,26.85,78,75,4.63,BR,1699935564
240,port saint john's,-31.6229,29.5448,16.55,74,99,1.91,ZA,1699935564
241,walvis bay,-22.9575,14.5053,15.55,87,71,1.27,NA,1699935281
242,tuy hoa,13.0833,109.3,26.79,89,94,5.27,VN,1699935004
243,shakawe,-18.3667,21.85,25.28,29,52,1.63,BW,1699935565
244,rudnya,54.947,31.0934,2.6,83,100,6.03,RU,1699935565
245,iskateley,67.6803,53.1512,-7.77,96,100,4.02,RU,1699935521
246,chernomorskoye,45.5039,32.6997,9.95,76,12,0.37,UA,1699935566
247,panchagarh,26.3313,88.562,25.56,51,4,1.94,BD,1699935566
248,novoagansk,61.9449,76.6625,-10.55,91,100,2.49,RU,1699935566
249,broken hill,-31.95,141.4333,27.69,21,67,3.98,AU,1699935011
250,cidreira,-30.1811,-50.2056,20.11,96,100,2.06,BR,1699935209
251,fort bragg,35.139,-79.006,8.78,87,0,0.0,US,1699935274
252,takab,36.4009,47.1133,7.39,64,2,0.46,IR,1699935567
253,talcahuano,-36.7167,-73.1167,9.82,81,0,4.63,CL,1699935378
254,newman,37.3138,-121.0208,12.92,71,38,2.45,US,1699935339
255,yulinshi,38.2906,109.7494,5.19,24,0,1.61,CN,1699935568
256,kruisfontein,-34.0033,24.7314,11.97,87,35,2.45,ZA,1699935568
257,preobrazheniye,42.9019,133.9064,3.69,35,0,1.95,RU,1699935546
258,bochum,51.4833,7.2167,11.87,87,99,3.58,DE,1699935569
259,sur,22.5667,59.5289,25.96,43,28,0.51,OM,1699935569
260,riyadh,24.6877,46.7219,20.08,47,75,3.14,SA,1699935569
261,pocone,-16.2567,-56.6228,28.21,45,30,2.54,BR,1699935570
262,oranjemund,-28.55,16.4333,15.98,73,0,0.84,NA,1699935570
263,trogir,43.5125,16.2517,17.11,82,100,2.06,HR,1699935570
264,aswan,24.0934,32.907,24.7,43,40,4.9,EG,1699935571
265,ancud,-41.8697,-73.8203,5.85,70,31,3.43,CL,1699935153
266,nagqu,31.5,92.0,-1.72,24,100,2.65,CN,1699935571
267,luorong,24.4058,109.6086,12.12,77,99,2.51,CN,1699935571
268,kasongo-lunda,-6.4667,16.8167,21.42,96,100,0.2,CD,1699935572
269,markovo,57.3206,107.0881,-1.54,85,100,4.14,RU,1699935572
270,aprilia,41.5895,12.6501,18.29,88,40,3.6,IT,1699935572
271,tazovsky,67.4667,78.7,-18.02,98,54,3.45,RU,1699935361
272,dingzhou,38.5131,114.9956,10.06,25,0,0.24,CN,1699935573
273,labrador city,52.9463,-66.9114,-10.05,92,100,1.03,CA,1699935546
274,wau,7.7029,27.9953,24.96,75,90,1.18,SS,1699935573
275,zeya,53.75,127.2667,-6.4,54,100,0.32,RU,1699935573
276,puerto baquerizo moreno,-0.9,-89.6,23.76,82,96,4.21,EC,1699935011
277,tobelo,1.7284,128.0095,29.29,72,76,0.19,ID,1699935574
278,howrah,22.5892,88.3103,26.0,69,20,2.06,IN,1699935574
279,demba,-5.51,22.2667,19.66,98,100,1.37,CD,1699935575
280,coahuayana de hidalgo,18.7,-103.6583,25.86,83,11,1.18,MX,1699935575
281,zaragoza,41.6561,-0.8773,17.49,73,0,1.54,ES,1699935575
282,petrovsk-zabaykal'skiy,51.273,108.843,-5.27,62,100,1.48,RU,1699935575
283,huron,41.1501,-82.5499,8.89,61,0,4.13,US,1699935575
284,fort mcmurray,56.7268,-111.381,-3.23,93,100,0.0,CA,1699935343
285,howard springs,-12.497,131.047,33.26,59,44,4.28,AU,1699935576
286,parabel',58.6978,81.4825,-8.94,95,64,1.79,RU,1699935576
287,eastham,41.8301,-69.9739,4.01,72,100,0.0,US,1699935577
288,dong ha,16.8163,107.1003,25.37,87,98,6.06,VN,1699935577
289,zaozersk,69.4005,32.4476,-13.06,100,94,1.15,RU,1699935506
290,katsuura,35.1333,140.3,14.55,44,16,2.09,JP,1699935577
291,san patricio,28.017,-97.5169,17.69,88,100,5.22,US,1699934993
292,jinxiang,27.4327,120.6062,15.88,50,66,2.8,CN,1699935578
293,alofi,-19.0595,-169.9187,24.94,22,100,3.6,NU,1699935034
294,antsiranana,-12.2787,49.2917,26.68,73,76,4.0,MG,1699935579
295,la ronge,55.1001,-105.2842,1.14,75,100,5.14,CA,1699935579
296,mpika,-11.8343,31.4529,17.32,94,82,2.51,ZM,1699935579
297,ternate,0.8,127.4,29.58,68,90,2.96,ID,1699935579
298,lianhe,47.1333,129.2667,-0.03,65,18,0.78,CN,1699935580
299,kokpekty,48.75,82.4,1.68,84,93,3.43,KZ,1699935580
300,tvoroyri,61.5556,-6.8111,8.01,77,9,11.39,FO,1699935580
301,pyay,18.8167,95.2167,28.87,64,77,3.44,MM,1699935580
302,karatuzskoye,53.6072,92.8667,-0.35,82,100,5.36,RU,1699935581
303,verkhnevilyuysk,63.4453,120.3167,-9.72,94,100,2.43,RU,1699935391
304,maun,-19.9833,23.4167,25.97,36,61,3.78,BW,1699935581
305,ilheus,-14.7889,-39.0494,21.88,90,22,2.1,BR,1699935582
306,uturoa,-16.7333,-151.4333,26.95,84,65,8.34,PF,1699935307
307,anadyr,64.75,177.4833,-14.44,71,5,12.96,RU,1699934969
308,durban,-29.8579,31.0292,16.51,75,100,4.65,ZA,1699935582
309,wuwei,37.9281,102.6414,6.49,27,0,2.09,CN,1699935582
310,pionerskiy,54.9508,20.2275,5.08,81,100,6.61,RU,1699935583
311,devgadh bariya,22.7,73.9,24.78,35,100,3.68,IN,1699935583
312,dubbo,-32.25,148.6167,32.07,17,86,6.17,AU,1699935583
313,fougamou,-1.2154,10.5838,23.98,99,97,0.55,GA,1699935584
314,bonthe,7.5264,-12.505,25.77,87,85,1.18,SL,1699935058
315,punta cana,18.5818,-68.4043,22.87,94,75,4.12,DO,1699935529
316,lata,40.1629,-8.3327,13.93,95,58,1.06,PT,1699935384
317,bulayevo,54.9056,70.4439,3.39,85,100,6.53,KZ,1699935586
318,ellsworth,44.5434,-68.4195,-0.76,90,0,2.06,US,1699935586
319,moranbah,-22.0016,148.0466,35.27,19,0,4.39,AU,1699935139
320,port augusta,-32.5,137.7667,28.3,30,50,7.22,AU,1699935120
321,rio grande,-32.035,-52.0986,18.86,95,100,3.13,BR,1699935272
322,baharly,38.4362,57.4316,16.2,34,99,3.2,TM,1699935587
323,guerrero negro,27.9769,-114.0611,20.15,60,100,4.18,MX,1699935588
324,bhamo,24.2667,97.2333,27.97,50,11,0.99,MM,1699935588
325,olyokminsk,60.3736,120.4264,-6.06,86,100,2.46,RU,1699935588
326,port mathurin,-19.6833,63.4167,25.42,77,1,3.01,MU,1699935589
327,subaykhan,34.8544,40.6083,21.95,28,97,3.77,SY,1699935589
328,arar,30.9753,41.0381,18.01,39,75,2.06,SA,1699935589
329,kodiak,57.79,-152.4072,5.73,45,75,8.23,US,1699935098
330,thunder bay,48.4001,-89.3168,-4.01,93,20,1.54,CA,1699935590
331,gebeit,21.0667,36.3167,24.22,70,100,1.93,SD,1699935590
332,mbeya,-8.9,33.45,16.65,86,68,1.39,TZ,1699935590
333,sao joao da barra,-21.6403,-41.0511,23.53,92,68,2.68,BR,1699935033
334,pachino,36.7186,15.0907,17.95,64,6,2.48,IT,1699935591
335,tinajo,29.0788,-13.7081,23.49,46,0,3.6,ES,1699935591
336,nanyuki,0.0167,37.0728,14.26,88,92,1.2,KE,1699935591
337,novaya igirma,57.1334,103.9112,-0.22,84,100,5.25,RU,1699935591
338,alice springs,-23.7,133.8833,35.75,14,14,3.6,AU,1699935002
339,severo-yeniseyskiy,60.3725,93.0408,-10.9,90,100,4.56,RU,1699935592
340,kone,-21.0595,164.8658,27.18,46,5,4.3,NC,1699935541
341,mount isa,-20.7333,139.5,38.87,11,0,5.66,AU,1699935138
342,novoishimskiy,53.1981,66.7694,4.04,81,100,8.03,KZ,1699935593
343,haiku-pauwela,20.9219,-156.3051,25.02,68,40,6.69,US,1699935321
344,matamata,-37.8106,175.7624,19.55,75,100,3.05,NZ,1699935593
345,kreminna,49.0495,38.2179,5.46,72,100,1.98,UA,1699935593
346,xam nua,20.4197,104.0439,20.73,72,95,1.32,LA,1699935594
347,holualoa,19.6228,-155.9522,24.91,82,75,2.06,US,1699935176
348,bel ombre,-4.6167,55.4167,29.91,74,40,5.14,SC,1699935595
349,lazaro cardenas,17.9583,-102.2,26.35,82,30,1.33,MX,1699935016
350,ganjam,19.3833,85.0667,26.45,60,99,3.96,IN,1699935595
351,jand,33.4299,72.0193,20.44,42,0,1.27,PK,1699935595
352,bucerias,20.75,-105.3333,26.99,83,0,1.03,MX,1699935454
353,funafuti,-8.5243,179.1942,30.0,89,100,2.57,TV,1699935596
354,el rama,12.1596,-84.2195,23.34,97,100,1.21,NI,1699935596
355,qamdo,31.1667,97.2333,1.42,31,36,2.77,CN,1699935596
356,vadso,70.0744,29.7487,-2.91,86,75,5.14,NO,1699934742
357,ta`u,-14.2336,-169.5144,27.3,82,57,5.21,AS,1699935100
358,badger,64.8,-147.5333,-3.07,92,100,0.0,US,1699935329
359,yangquan,37.8575,113.5633,8.73,25,0,3.54,CN,1699935597
360,st. john's,47.5649,-52.7093,0.08,83,88,0.45,CA,1699934944
361,ascencion,31.1,-107.9833,15.08,64,58,4.9,MX,1699935598
362,saudarkrokur,65.7461,-19.6394,-1.58,83,11,4.27,IS,1699935598
363,gediz,39.0417,29.41,8.53,85,33,2.35,TR,1699935598
364,tuzlukcu,38.4778,31.6264,11.23,72,100,3.22,TR,1699935599
365,winnemucca,40.973,-117.7357,11.0,24,100,2.0,US,1699935599
366,tiquipaya,-17.3382,-66.2189,19.4,44,40,3.09,BO,1699935599
367,kaohsiung,22.6163,120.3133,27.97,57,75,2.06,TW,1699935599
368,carutapera,-1.195,-46.02,25.09,85,78,3.06,BR,1699935163
369,egilsstadir,65.2653,-14.3948,2.95,93,75,1.54,IS,1699935226
370,daru,-9.0763,143.2092,28.57,62,30,4.7,PG,1699935600
371,constitucion,-35.3333,-72.4167,9.33,82,10,5.34,CL,1699935342
372,ceeldheer,3.8488,47.1806,26.6,82,73,0.7,SO,1699935600
373,polyarnyy,69.1989,33.4478,-9.18,97,95,1.19,RU,1699935003
374,westport,41.1415,-73.3579,6.68,78,0,0.89,US,1699935601
375,thinadhoo,0.5333,72.9333,27.56,78,94,3.81,MV,1699935385
376,atar,20.5169,-13.0499,24.9,14,5,4.5,MR,1699935601
377,chichigalpa,12.5776,-87.027,25.03,88,100,1.39,NI,1699935602
378,pontiac,42.6389,-83.2911,7.67,65,0,3.09,US,1699935602
379,tindouf,27.6711,-8.1474,17.25,36,0,2.06,DZ,1699935603
380,portland,45.5234,-122.6762,9.19,90,0,1.79,US,1699935240
381,itaituba,-4.2761,-55.9836,27.66,54,53,0.44,BR,1699935520
382,cerqueira cesar,-23.0356,-49.1661,24.37,49,6,2.29,BR,1699935604
383,lorengau,-2.0226,147.2712,28.27,77,97,3.0,PG,1699935604
384,kasungu,-13.0333,33.4833,20.47,82,9,3.83,MW,1699935604
385,qa'en,33.7265,59.1844,14.21,29,100,1.2,IR,1699935605
386,turochak,52.2576,87.1224,1.37,100,100,2.04,RU,1699935605
387,meadow lake,34.8014,-106.5436,10.11,54,0,1.84,US,1699935605
388,chenzhou,25.8,113.0333,9.39,90,100,1.22,CN,1699935606
389,aasiaat,68.7098,-52.8699,-11.17,82,100,1.29,GL,1699935352
390,patacamaya,-17.2333,-67.9167,10.24,66,18,2.69,BO,1699935606
391,vorkuta,67.5,64.0,-12.08,88,100,3.64,RU,1699935409
392,forster,-32.1667,152.5167,23.54,70,60,6.79,AU,1699935607
393,padangsidempuan,1.3667,99.2667,26.89,81,94,1.05,ID,1699935607
394,umm kaddadah,13.6017,26.6876,26.62,31,69,6.59,SD,1699935607
395,kargil,34.5667,76.1,-0.88,39,0,0.39,IN,1699935608
396,gaspe,48.8334,-64.4819,-1.05,86,100,2.06,CA,1699935203
397,termas de rio hondo,-27.4998,-64.8604,20.75,43,100,1.24,AR,1699935608
398,fuman,37.2273,49.3142,13.72,69,5,1.13,IR,1699935608
399,worland,44.0169,-107.9554,8.71,44,0,0.0,US,1699935609
400,saint-philippe,-21.3585,55.7679,26.77,77,53,3.33,RE,1699935182
401,sao jose da coroa grande,-8.8978,-35.1478,24.75,86,96,2.04,BR,1699935609
402,termini imerese,37.9837,13.6956,18.6,68,10,2.19,IT,1699935609
403,balpyk bi,44.8947,78.2083,4.12,47,0,1.74,KZ,1699935610
404,cozumel,20.5083,-86.9458,25.53,95,100,5.01,MX,1699935435
405,katsuren-haebaru,26.3369,127.8719,24.21,49,75,4.12,JP,1699935610
406,livny,52.4253,37.6069,3.5,85,84,5.07,RU,1699935611
407,callao,-12.0667,-77.15,20.95,77,100,4.63,PE,1699935467
408,buka,40.8108,69.1986,10.96,32,0,1.25,UZ,1699935611
409,vilyeyka,54.4896,26.9062,2.44,94,89,1.95,BY,1699935611
410,east ballina,-28.8667,153.5833,23.44,71,40,6.41,AU,1699935612
411,obo,5.3998,26.4869,20.65,98,98,1.64,CF,1699935612
412,mangrol,21.1167,70.1167,27.26,32,26,4.26,IN,1699935612
413,vernon,50.2581,-119.2691,6.2,71,19,0.89,CA,1699935225
414,pangkalanbuun,-2.6833,111.6167,34.69,47,45,1.44,ID,1699935583
415,vylkove,45.4021,29.586,6.46,56,10,3.99,UA,1699935613
416,si sa ket,14.8333,104.3333,30.68,66,71,5.8,TH,1699935614
417,nuuk,64.1835,-51.7216,-2.66,86,100,4.63,GL,1699935614
418,sao gabriel da cachoeira,-0.1303,-67.0892,24.1,91,62,0.45,BR,1699935614
419,bikenibeu village,1.3673,173.1241,26.98,94,75,10.29,KI,1699935615
420,yarmouth,41.7057,-70.2286,4.42,78,100,2.06,US,1699935615
421,sinabang,2.4803,96.3801,25.44,86,100,1.79,ID,1699935276
422,nyuzen,36.9333,137.5,14.15,63,36,3.31,JP,1699935616
423,revda,56.801,59.9303,2.59,96,100,5.02,RU,1699935616
424,cestos city,5.46,-9.5828,26.18,86,69,2.46,LR,1699935616
425,ciudad barrios,13.7667,-88.2667,19.21,98,100,1.39,SV,1699935617
426,kyzylorda,44.8528,65.5092,1.01,86,0,4.0,KZ,1699935587
427,johi,26.6921,67.6133,24.27,21,80,2.29,PK,1699935617
428,kiunga,-6.1219,141.2906,34.14,44,76,1.25,PG,1699935617
429,booue,-0.0921,11.9385,22.62,99,76,0.64,GA,1699935618
430,san carlos de bariloche,-41.1456,-71.3082,2.86,60,40,7.72,AR,1699935468
431,paita,-5.0892,-81.1144,20.26,84,9,5.67,PE,1699935618
432,nova praha,48.5682,32.9027,3.56,79,6,2.64,UA,1699935619
433,beidao,34.5686,105.8933,10.6,52,6,0.1,CN,1699935619
434,feijo,-8.1642,-70.3536,23.31,96,40,0.94,BR,1699935620
435,stefanesti-sat,47.7833,27.1833,2.92,66,40,3.11,RO,1699935620
436,arauca,7.0847,-70.7591,23.35,97,44,1.77,CO,1699935620
437,takoradi,4.8845,-1.7554,25.77,88,2,1.81,GH,1699935473
438,terme,41.2092,36.9739,14.96,91,100,7.74,TR,1699935273
439,north battleford,52.7834,-108.2847,8.05,53,100,2.57,CA,1699935621
440,tofol,5.3248,163.0078,27.88,83,75,4.63,FM,1699935439
441,lerwick,60.1545,-1.1494,6.87,77,71,4.63,GB,1699935549
442,rabaul,-4.1967,152.1721,28.23,69,29,3.7,PG,1699935622
443,smithers,54.7804,-127.1743,-0.82,100,100,1.03,CA,1699935622
444,muroto-misakicho,33.2833,134.15,14.06,53,0,2.49,JP,1699935622
445,luwuk,-0.9516,122.7875,31.46,62,81,1.32,ID,1699935623
446,kandahar,31.0,65.75,15.62,27,24,1.1,AF,1699935623
447,alegrete,-29.7831,-55.7919,19.55,98,100,3.6,BR,1699935623
448,estreito,-5.7833,-43.25,23.97,56,3,2.0,BR,1699935624
449,kailua-kona,19.6406,-155.9956,26.98,79,75,2.06,US,1699935584
450,indi,17.1667,75.9667,24.88,65,100,2.64,IN,1699935624
451,naze,28.3667,129.4833,18.51,57,79,3.34,JP,1699935311
452,pacific grove,36.6177,-121.9166,12.82,84,0,3.09,US,1699935407
453,las heras,-46.5419,-68.9359,5.42,32,71,8.5,AR,1699935625
454,fes al bali,34.0701,-4.9547,15.07,38,0,4.12,MA,1699935626
455,nchelenge,-9.3451,28.734,20.65,87,100,0.98,ZM,1699935626
456,yatou,37.15,122.3833,9.49,37,100,3.13,CN,1699935627
457,dilling,12.05,29.65,25.46,36,12,3.24,SD,1699935627
458,enewetak,11.3474,162.3373,28.4,81,87,8.3,MH,1699935095
459,arish,31.1316,33.7984,21.82,79,7,4.03,EG,1699935628
460,machico,32.7,-16.7667,19.84,85,75,3.09,PT,1699935628
461,punta arenas,-53.15,-70.9167,2.84,69,74,5.54,CL,1699935170
462,iwaki,37.05,140.8833,16.74,66,49,5.01,JP,1699935628
463,harstad,68.799,16.5293,-3.25,76,11,2.68,NO,1699935582
464,la'ie,21.6477,-157.9253,26.98,75,51,5.36,US,1699935018
465,mahalapye,-23.1041,26.8142,17.43,78,1,7.92,BW,1699935629
466,yuzhno-kurilsk,44.0306,145.8556,2.43,80,40,9.34,RU,1699935550
467,saint-pierre,-21.3393,55.4781,26.43,53,45,2.06,RE,1699935036
468,praya,14.9215,-23.5087,25.3,65,0,6.17,CV,1699935240
469,kayunga,0.7025,32.8886,17.5,96,46,0.54,UG,1699935630
470,kuching,1.55,110.3333,34.01,64,20,2.06,MY,1699935156
471,tezu,27.9167,96.1667,26.82,30,44,1.45,IN,1699935146
472,mailag,7.9703,125.1375,32.23,50,50,0.9,PH,1699935631
473,safotu,-13.4513,-172.4018,28.97,80,80,3.23,WS,1699935631
474,ataq,14.5377,46.8319,21.01,53,68,0.79,YE,1699935632
475,i-n-salah,27.1935,2.4607,18.91,35,0,5.55,DZ,1699935377
476,weligama,5.9667,80.4167,25.78,90,99,1.34,LK,1699935632
477,san pedro pochutla,15.7333,-96.4667,24.09,86,28,1.75,MX,1699935632
478,mossel bay,-34.1831,22.146,12.96,82,9,6.76,ZA,1699935633
479,zemio,5.0314,25.1361,21.05,97,100,2.48,CF,1699935633
480,barah,13.7,30.3667,26.79,31,12,4.82,SD,1699935633
481,papao,-17.75,-149.55,27.82,94,96,8.01,PF,1699935634
482,garoowe,8.4054,48.4845,24.93,66,100,5.01,SO,1699935634
483,la rioja,42.25,-2.5,5.88,86,83,3.31,ES,1699935634
484,labytnangi,66.6572,66.4183,-17.48,99,100,0.93,RU,1699935635
485,alesund,62.4723,6.1549,2.41,74,0,1.54,NO,1699935635
486,anacortes,48.5126,-122.6127,7.96,92,0,0.45,US,1699935635
487,kourou,5.1552,-52.6478,25.03,90,12,2.52,GF,1699935549
488,camana,-16.6228,-72.7111,18.97,86,43,3.09,PE,1699935636
489,tughyl,47.7252,84.2063,3.33,77,98,7.35,KZ,1699935636
490,aquidauana,-20.4711,-55.7872,29.07,38,15,1.55,BR,1699935636
491,ergue-gaberic,47.9956,-4.0222,14.05,94,100,5.14,FR,1699935636
492,saint-denis,48.9167,2.3333,12.43,84,100,7.2,FR,1699935637
493,letterkenny,54.95,-7.7333,8.33,95,100,2.83,IE,1699935637
494,santa eularia des riu,38.9846,1.5341,17.16,94,0,1.03,ES,1699935637
495,kentau,43.5206,68.5094,8.23,39,1,4.25,KZ,1699935637
496,akureyri,65.6835,-18.0878,2.96,75,100,1.03,IS,1699935505
497,aleg,17.0481,-13.9209,27.7,9,44,5.1,MR,1699935638
498,shingu,33.7333,135.9833,16.22,45,3,0.65,JP,1699935639
499,tamiyah,29.4764,30.9612,18.68,82,0,2.46,EG,1699935639
500,barranca,-10.75,-77.7667,18.99,88,30,3.97,PE,1699935639
501,richards bay,-28.783,32.0377,17.6,78,100,4.69,ZA,1699935639
502,port macquarie,-31.4333,152.9167,24.38,66,20,6.28,AU,1699935640
503,moyale,3.5167,39.0584,20.1,86,98,1.58,KE,1699935640
504,chibougamau,49.9168,-74.3659,-5.21,93,100,3.09,CA,1699935443
505,mulvane,37.4745,-97.2439,12.97,63,0,2.57,US,1699935640
506,huai'an,33.5886,119.0192,10.05,42,0,2.63,CN,1699935641
507,kristiansund,63.1115,7.732,0.36,64,75,2.06,NO,1699935559
508,dongola,19.1667,30.4833,26.09,35,90,5.34,SD,1699935641
509,mahina,-17.5065,-149.489,27.87,83,75,4.12,PF,1699935642
510,altentreptow,53.6833,13.25,10.13,83,99,8.67,DE,1699935642
511,khandyga,62.6667,135.6,-23.45,96,64,1.1,RU,1699935642
512,vallenar,-28.5708,-70.7581,18.11,49,1,0.85,CL,1699935377
513,taro,-8.3862,115.28,24.0,63,60,2.36,ID,1699935643
514,salalah,17.0151,54.0924,27.05,89,40,1.54,OM,1699935480
515,masterton,-40.9597,175.6575,17.16,55,67,6.26,NZ,1699935643
516,sampit,-2.5333,112.95,31.23,66,82,1.22,ID,1699935643
517,utrik,11.2278,169.8474,27.97,81,100,8.3,MH,1699935423
518,tougan,13.0667,-3.0667,23.5,18,2,3.53,BF,1699935644
519,hilo,19.7297,-155.09,22.85,92,40,2.06,US,1699935425
520,arrifes,37.7667,-25.7,17.14,88,20,1.54,PT,1699935441
521,mahebourg,-20.4081,57.7,26.81,78,40,3.6,MU,1699935417
522,champerico,14.3,-91.9167,27.89,81,39,1.83,GT,1699935645
523,ivdel',60.6911,60.4206,1.77,81,100,1.79,RU,1699935645
524,ixtapa,20.7,-105.2,26.57,83,0,1.03,MX,1699935188
525,basco,20.4487,121.9702,25.62,70,63,10.21,PH,1699935646
526,val-des-monts,45.6501,-75.666,-0.14,92,100,1.22,CA,1699935646
527,mil'kovo,55.6078,37.7956,4.12,91,100,5.19,RU,1699935646
528,kayenta,36.7278,-110.2546,8.82,26,100,1.54,US,1699935646
529,yoloten,37.2989,62.3597,14.09,41,23,4.96,TM,1699935647
530,syktyvkar,61.6764,50.8099,1.85,100,100,2.0,RU,1699935647
531,fort st. john,56.2499,-120.8529,-4.06,86,0,5.14,CA,1699935356
532,santa cruz,-17.8,-63.1667,27.7,78,40,4.12,BO,1699935559
533,lakatoro,-16.0999,167.4164,25.42,71,100,7.16,VU,1699935648
534,saucillo,28.0167,-105.2833,16.81,63,99,4.57,MX,1699935648
535,alaghsas,17.0187,8.0168,22.69,15,2,4.58,NE,1699935648
536,assab,13.0092,42.7394,27.05,75,17,9.72,ER,1699935649
537,rio preto da eva,-2.6994,-59.6997,26.69,64,90,0.52,BR,1699935649
538,punta umbria,37.1821,-6.9661,14.57,70,0,2.86,ES,1699935649
539,salekhard,66.53,66.6019,-17.64,99,100,1.33,RU,1699935649
540,richfield,44.8833,-93.283,10.27,46,40,4.12,US,1699935650
541,christchurch,-43.5333,172.6333,24.11,38,61,8.23,NZ,1699935650
542,fortaleza,-3.7227,-38.5247,27.34,78,75,6.17,BR,1699935650
543,theodore,30.5477,-88.1753,15.64,95,40,3.09,US,1699935650
544,totness,5.8833,-56.3167,26.71,84,19,4.78,SR,1699935537
545,rameswaram,9.2833,79.3,26.41,85,100,10.64,IN,1699935651
546,port lincoln,-34.7333,135.8667,17.53,67,58,4.37,AU,1699935055
547,necochea,-38.5473,-58.7368,12.91,50,44,5.95,AR,1699935552
548,kirakira,-10.4544,161.9205,26.98,80,86,2.66,SB,1699935652
549,comodoro rivadavia,-45.8667,-67.5,6.92,36,0,9.77,AR,1699935652
550,itamaraca,-7.7478,-34.8256,27.03,83,50,2.92,BR,1699935652
551,eureka,40.8021,-124.1637,13.44,94,100,0.45,US,1699935653
552,kuraymah,18.55,31.85,26.29,27,84,2.09,SD,1699935653
553,matamey,13.4231,8.4749,21.97,16,71,4.31,NE,1699935653
554,undurkhaan,47.3194,110.6556,-10.72,77,3,1.5,MN,1699935653
555,hastings,50.8552,0.5729,14.05,86,69,11.4,GB,1699935654
556,dhidhdhoo,6.8833,73.1,27.85,74,50,1.23,MV,1699935654
557,port shepstone,-30.7414,30.455,17.5,68,100,3.8,ZA,1699935654
558,khost,33.3395,69.9204,16.45,33,0,0.63,AF,1699935654
559,superior,46.7208,-92.1041,5.73,71,0,2.57,US,1699935655
560,pimentel,-6.8367,-79.9342,20.16,77,0,7.2,PE,1699935567
561,acapulco de juarez,16.8634,-99.8901,28.9,79,0,3.09,MX,1699935655
562,valparaiso,-33.0393,-71.6273,12.8,71,0,0.51,CL,1699935656
563,ironwood,46.4547,-90.171,-3.55,86,0,1.54,US,1699935535
564,altagracia de orituco,9.8601,-66.3814,22.86,94,89,1.71,VE,1699935656
565,maumere,-8.6199,122.2111,30.33,64,10,0.73,ID,1699935657
566,hammerfest,70.6634,23.6821,-0.75,93,100,0.51,NO,1699935657
567,arawa,-6.2132,155.5367,30.51,58,98,0.61,PG,1699935657
568,wanning,18.8003,110.3967,23.7,88,96,5.03,CN,1699935515
569,taroa,8.7058,171.2275,27.37,83,93,7.6,MH,1699935657
570,guangyuan,32.442,105.823,12.7,70,87,1.24,CN,1699935658
571,sumbawanga,-7.9667,31.6167,16.53,89,87,0.79,TZ,1699935658
572,antofagasta,-23.65,-70.4,17.54,73,29,2.69,CL,1699935128
573,faya-largeau,17.9257,19.1043,23.47,23,87,12.44,TD,1699935559
574,tamanrasset,22.785,5.5228,17.95,24,0,5.66,DZ,1699935507
575,quiberon,47.4841,-3.1196,15.6,89,100,4.92,FR,1699935659
576,suining,30.508,105.5733,11.6,81,100,1.39,CN,1699935659
577,siwa oasis,29.2041,25.5195,19.08,59,0,3.66,EG,1699935135
578,reguiba,33.5639,6.7033,13.03,71,0,1.03,DZ,1699935660
579,dabeiba,7.0017,-76.2672,24.69,99,96,0.13,CO,1699935660
580,tionk essil,12.7856,-16.5217,23.98,51,72,1.88,SN,1699935660
581,suva,-18.1416,178.4415,26.71,94,75,3.6,FJ,1699935402
582,ust-tsilma,65.441,52.1498,-5.22,95,100,1.34,RU,1699935661
583,dalian,38.9122,121.6022,9.96,53,0,5.0,CN,1699935661
584,ugoofaaru,5.6667,73.0,27.3,77,67,1.93,MV,1699935661
585,loango,-4.6719,11.8312,25.29,91,96,2.22,CG,1699935662
586,sambava,-14.2667,50.1667,24.55,79,79,0.69,MG,1699935662
587,ndele,8.4109,20.6473,22.45,85,87,0.8,CF,1699935536
588,harrison,30.4091,-89.0436,15.04,92,75,5.66,US,1699935583
589,hadibu,12.65,54.0333,26.92,83,76,4.79,YE,1699935644
590,athens,37.9795,23.7162,16.76,82,20,0.89,GR,1699935663
591,kingscliff,-28.2667,153.5667,27.63,69,40,5.66,AU,1699935664
