City_ID,City,Lat,Lng,Max Temp,Humidity,Cloudiness,Wind Speed,Country,Date
0,bonthe,7.5264,-12.505,26.24,85,21,2.16,SL,1699863342
1,port-aux-francais,-49.35,70.2167,4.84,96,100,5.23,TF,1699863343
2,arraial do cabo,-22.9661,-42.0278,23.49,90,47,0.72,BR,1699863158
3,polyarnyy,69.1989,33.4478,-8.34,97,99,3.78,RU,1699863343
4,sol'-iletsk,51.1631,54.9918,6.71,60,100,7.55,RU,1699863343
5,tarawa,1.419,172.984,29.05,84,75,0.0,KI,1699863344
6,albany,42.6001,-73.9662,-3.66,85,6,0.94,US,1699863123
7,lucas,41.6501,-83.6666,5.08,66,0,4.12,US,1699863344
8,jalqani,12.4486,34.2186,34.56,29,14,3.22,SD,1699863345
9,edinburgh of the seven seas,-37.0676,-12.3116,14.03,81,22,11.31,SH,1699863345
10,wailua homesteads,22.0669,-159.378,25.44,79,40,11.32,US,1699863346
11,ingeniero guillermo n. juarez,-23.9,-61.85,23.12,84,100,6.11,AR,1699863346
12,ilulissat,69.2167,-51.1,-6.99,68,100,7.2,GL,1699863346
13,port mathurin,-19.6833,63.4167,25.77,71,0,0.8,MU,1699863347
14,talnakh,69.4865,88.3972,-5.52,96,100,2.77,RU,1699863347
15,invercargill,-46.4,168.35,10.57,93,100,0.45,NZ,1699863164
16,katabu,-4.9333,122.5167,31.5,54,95,2.54,ID,1699863348
17,fort bragg,35.139,-79.006,8.23,87,0,1.79,US,1699863348
18,whangarei,-35.7317,174.3239,11.97,74,76,1.42,NZ,1699863349
19,claveria,18.6074,121.0832,25.69,87,79,8.41,PH,1699863349
20,posto fiscal rolim de moura,-13.0833,-62.2667,24.39,91,100,0.46,BR,1699863349
21,grytviken,-54.2811,-36.5092,2.68,92,100,1.6,GS,1699863350
22,tazovsky,67.4667,78.7,-8.36,93,100,8.84,RU,1699863350
23,avarua,-21.2078,-159.775,21.03,73,20,2.06,CK,1699863323
24,portland,45.5234,-122.6762,11.17,95,100,2.24,US,1699862707
25,egersund,58.4513,5.9997,6.16,78,96,7.49,NO,1699863350
26,yellowknife,62.456,-114.3525,-8.66,94,75,4.12,CA,1699863351
27,guixi,28.2886,117.2133,10.41,78,100,2.16,CN,1699863351
28,rongelap,11.1635,166.8941,27.81,84,88,9.64,MH,1699863351
29,ushuaia,-54.8,-68.3,8.81,64,20,4.12,AR,1699863294
30,gutao,37.2025,112.1781,7.26,27,48,2.22,CN,1699863352
31,juankoski,63.0667,28.35,-1.53,86,100,5.12,FI,1699863352
32,hithadhoo,-0.6,73.0833,27.52,80,80,5.28,MV,1699863352
33,fortaleza,-3.7227,-38.5247,26.79,78,40,5.14,BR,1699863353
34,dudinka,69.4058,86.1778,-9.25,96,96,3.86,RU,1699863353
35,gadzhiyevo,69.2551,33.3362,-9.25,97,99,3.93,RU,1699863353
36,gafanha da nazare,40.6362,-8.7134,17.79,95,77,5.04,PT,1699863353
37,aasiaat,68.7098,-52.8699,-15.92,96,59,2.55,GL,1699863354
38,puerto natales,-51.7236,-72.4875,4.21,96,100,2.55,CL,1699863354
39,qaqortoq,60.7167,-46.0333,-9.39,92,23,0.58,GL,1699863355
40,iqaluit,63.7506,-68.5145,-17.95,77,20,7.2,CA,1699863355
41,adamstown,-25.066,-130.1015,22.64,87,100,8.0,PN,1699863355
42,rusape,-18.5278,32.1284,28.36,27,34,2.88,ZW,1699863356
43,bethel,41.3712,-73.414,-0.47,81,0,1.54,US,1699863356
44,atafu village,-8.5421,-172.5159,29.24,73,11,3.35,TK,1699863356
45,bilibino,68.0546,166.4372,-19.41,99,100,2.27,RU,1699863357
46,blackmans bay,-43.0167,147.3167,17.07,51,84,0.89,AU,1699863357
47,olyokminsk,60.3736,120.4264,-9.16,95,100,1.54,RU,1699863357
48,tarko-sale,64.9225,77.785,-7.75,88,29,8.76,RU,1699863358
49,ribeira grande,38.5167,-28.7,16.22,94,75,4.63,PT,1699863358
50,vorgashor,67.5833,63.95,-14.65,99,76,1.81,RU,1699863358
51,n'zeto,-7.2312,12.8666,26.15,83,100,0.12,AO,1699863164
52,touros,-5.1989,-35.4608,26.1,75,100,5.05,BR,1699863343
53,west island,-12.1568,96.8225,28.99,74,40,6.69,CC,1699863359
54,ntoum,0.3833,9.7833,25.87,86,100,1.84,GA,1699863359
55,saipan,15.1355,145.701,28.39,89,40,6.69,MP,1699863359
56,griffith,41.5284,-87.4237,8.27,60,0,3.09,US,1699863360
57,stanley,54.868,-1.6985,7.09,95,75,4.12,GB,1699863360
58,ketchikan,55.3422,-131.6461,6.99,81,0,4.63,US,1699863360
59,las khorey,11.1595,48.1967,29.11,66,25,5.68,SO,1699863361
60,kalmunai,7.4167,81.8167,26.5,85,100,3.93,LK,1699863361
61,ribeira brava,32.65,-17.0667,21.35,79,38,1.91,PT,1699863361
62,port elizabeth,-33.918,25.5701,16.29,90,100,4.63,ZA,1699863362
63,yaren,-0.5472,166.916,26.13,93,100,8.86,NR,1699863362
64,thompson,55.7435,-97.8558,1.09,93,100,4.63,CA,1699863362
65,waitangi,-43.9535,-176.5597,13.79,89,86,2.68,NZ,1699863363
66,westport,41.1415,-73.3579,1.71,74,0,2.57,US,1699863219
67,mtwara,-10.2667,40.1833,26.57,81,98,1.41,TZ,1699863363
68,gizo,-8.103,156.8419,27.53,77,91,5.28,SB,1699863363
69,klyuchi,52.2667,79.1667,4.68,88,100,4.72,RU,1699863364
70,lerwick,60.1545,-1.1494,8.0,68,100,11.66,GB,1699863364
71,kapuskasing,49.4169,-82.4331,2.0,93,100,6.69,CA,1699863364
72,pyt-yakh,60.7499,72.8582,-4.08,88,7,3.31,RU,1699863365
73,yigo village,13.5361,144.8886,27.63,87,75,5.66,GU,1699863365
74,na wa,17.4897,104.1006,32.02,64,100,4.17,TH,1699863365
75,praia da vitoria,38.7333,-27.0667,17.14,77,75,1.09,PT,1699863366
76,margaret river,-33.95,115.0667,22.01,60,100,4.37,AU,1699863366
77,papatowai,-46.5619,169.4708,10.15,93,100,2.72,NZ,1699863366
78,comodoro rivadavia,-45.8667,-67.5,10.92,43,0,11.83,AR,1699863183
79,aldama,22.9167,-98.0667,18.61,87,100,0.85,MX,1699863367
80,yayva,59.3303,57.2641,3.43,85,100,4.75,RU,1699863367
81,palmer,42.1584,-72.3287,-1.94,69,0,1.14,US,1699863367
82,kalocsa,46.5264,18.9858,8.51,75,95,2.97,HU,1699863368
83,egilsstadir,65.2653,-14.3948,2.95,75,75,4.12,IS,1699863368
84,uturoa,-16.7333,-151.4333,27.26,79,46,1.42,PF,1699863368
85,xining,36.6167,101.7667,7.61,23,0,1.62,CN,1699863369
86,newman,37.3138,-121.0208,11.7,64,88,2.43,US,1699863369
87,longyearbyen,78.2186,15.6401,-7.09,68,75,9.26,SJ,1699863180
88,porto novo,6.4965,2.6036,28.9,77,13,1.69,BJ,1699863369
89,aioun,16.6614,-9.6149,26.8,17,7,3.69,MR,1699863370
90,tiksi,71.6872,128.8694,-18.01,92,100,4.71,RU,1699863370
91,la ronge,55.1001,-105.2842,-4.86,93,0,0.0,CA,1699863170
92,kijang,35.2442,129.2139,8.85,23,0,2.4,KR,1699863370
93,san marcos,33.1434,-117.1661,18.55,32,0,1.34,US,1699863120
94,argo,37.6333,22.7333,18.77,74,58,1.43,GR,1699863371
95,isafjordur,66.0755,-23.124,4.02,60,20,11.32,IS,1699863371
96,bubaque,11.2833,-15.8333,28.07,65,9,4.41,GW,1699863371
97,helena valley west central,46.6629,-112.0604,4.38,65,0,2.06,US,1699863372
98,juneau,58.3019,-134.4197,-0.5,97,40,0.0,US,1699863304
99,puerto ayora,-0.7393,-90.3518,24.19,93,96,2.68,EC,1699863372
100,nadym,65.5333,72.5167,-7.87,82,12,8.63,RU,1699863373
101,puerto baquerizo moreno,-0.9,-89.6,23.67,83,75,5.02,EC,1699863373
102,hammerfest,70.6634,23.6821,-7.75,67,0,0.0,NO,1699863373
103,port lincoln,-34.7333,135.8667,14.6,75,100,5.52,AU,1699863373
104,flin flon,54.7682,-101.865,-0.68,84,86,3.37,CA,1699863319
105,nova sintra,14.8667,-24.7167,23.2,69,100,5.99,CV,1699863374
106,jamestown,42.097,-79.2353,4.29,91,0,2.57,US,1699863098
107,mount pearl,47.5166,-52.7813,-1.63,78,100,3.6,CA,1699863374
108,hermanus,-34.4187,19.2345,19.63,58,72,6.97,ZA,1699863375
109,malango,-2.9627,119.9001,25.06,81,96,1.18,ID,1699863375
110,arkhangel'sk,64.5401,40.5433,-6.6,90,100,5.67,RU,1699863375
111,vila velha,-20.3297,-40.2925,23.97,91,0,4.12,BR,1699863376
112,livingston,55.9029,-3.5226,7.67,90,100,5.66,GB,1699863376
113,al bawiti,28.3492,28.8659,24.28,62,0,3.58,EG,1699863353
114,hadibu,12.65,54.0333,28.08,77,15,6.03,YE,1699863376
115,ikom,5.9667,8.7063,27.75,79,92,1.18,NG,1699863377
116,olenino,56.2092,33.4889,0.76,97,100,5.73,RU,1699863377
117,el calafate,-50.3408,-72.2768,5.34,76,95,0.6,AR,1699863377
118,papao,-17.75,-149.55,25.82,79,44,1.68,PF,1699863323
119,kailua-kona,19.6406,-155.9956,25.98,82,0,3.6,US,1699863378
120,port macquarie,-31.4333,152.9167,19.94,67,60,4.36,AU,1699863378
121,tsiombe,-25.3,45.4833,33.46,31,0,4.97,MG,1699863378
122,badger,64.8,-147.5333,-6.83,88,100,3.6,US,1699863379
123,sudislavl',57.8817,41.7083,6.72,95,100,4.88,RU,1699863379
124,olonkinbyen,70.9221,-8.7187,-3.14,68,99,3.18,SJ,1699863379
125,dem'yanovo,60.3511,47.0842,1.05,97,100,5.16,RU,1699863380
126,georgetown,5.4112,100.3354,32.19,79,20,3.09,MY,1699863244
127,laojunmiao,39.8333,97.7333,4.8,27,99,1.72,CN,1699863380
128,massaguet,12.4755,15.4365,30.96,16,100,4.51,TD,1699863381
129,east london,-33.0153,27.9116,21.52,60,20,7.2,ZA,1699863381
130,korba,22.35,82.6833,30.0,39,69,1.28,IN,1699863381
131,port alfred,-33.5906,26.891,19.54,77,92,4.02,ZA,1699863382
132,sitka,57.0531,-135.33,1.94,80,0,2.06,US,1699863382
133,whitehorse,60.7161,-135.0538,-3.57,80,100,1.54,CA,1699863263
134,singarayakonda,15.25,80.0333,29.02,61,100,6.29,IN,1699863382
135,bikenibeu village,1.3673,173.1241,28.98,84,75,0.0,KI,1699863383
136,kurumkan,54.3,110.3,-5.49,83,27,0.45,RU,1699863383
137,huarmey,-10.0681,-78.1522,19.21,87,60,3.21,PE,1699863383
138,kodinsk,58.6881,99.1844,-3.09,96,100,2.24,RU,1699863383
139,satipo,-11.2522,-74.6386,21.76,93,50,0.74,PE,1699863384
140,holualoa,19.6228,-155.9522,23.91,84,0,3.6,US,1699863384
141,tadmur,34.5608,38.2805,23.1,36,1,1.0,SY,1699863384
142,chiredzi,-21.05,31.6667,28.48,44,77,4.17,ZW,1699863385
143,anadyr,64.75,177.4833,-3.72,79,75,9.0,RU,1699863385
144,al jawf,29.5,38.75,26.51,24,92,1.74,SA,1699863385
145,olingan,8.5314,123.3194,29.48,74,20,3.75,PH,1699863385
146,mount gambier,-37.8333,140.7667,14.16,62,100,3.32,AU,1699863386
147,atar,20.5169,-13.0499,23.73,12,0,3.23,MR,1699863386
148,balqash,46.8481,74.995,5.33,75,40,4.0,KZ,1699863386
149,tenenkou,14.4572,-4.9169,27.63,10,11,5.41,ML,1699863386
150,lazaro cardenas,17.9583,-102.2,24.92,87,19,1.74,MX,1699863323
151,petropavlovsk-kamchatsky,53.0452,158.6483,-3.08,74,40,12.52,RU,1699863387
152,wynyard,-41.0,145.7167,14.82,57,0,5.79,AU,1699863387
153,benoy,8.9833,16.3199,26.03,69,100,0.89,TD,1699863387
154,weno,7.4515,151.8468,26.97,89,75,2.06,FM,1699863388
155,puerto deseado,-47.7503,-65.8938,9.29,50,12,6.05,AR,1699863388
156,mugia,43.1041,-9.2179,19.39,96,100,12.3,ES,1699863388
157,quiruvilca,-7.9667,-78.2,5.08,92,40,1.49,PE,1699863388
158,mata-utu,-13.2816,-176.1745,28.72,74,100,5.2,WF,1699863389
159,bredasdorp,-34.5322,20.0403,19.7,53,97,6.42,ZA,1699863389
160,cape canaveral,28.4058,-80.6048,23.38,93,75,5.14,US,1699863389
161,port saint john's,-31.6229,29.5448,21.05,50,0,5.16,ZA,1699863389
162,tomatlan,19.9333,-105.25,23.89,82,100,1.47,MX,1699863390
163,tazacorte,28.629,-17.9293,23.42,37,40,4.02,ES,1699863390
164,parry sound,45.3501,-80.033,2.03,75,98,6.06,CA,1699863390
165,constantia,44.1833,28.65,11.5,47,29,2.77,RO,1699863390
166,ancud,-41.8697,-73.8203,8.83,87,100,5.37,CL,1699863391
167,cockburn town,21.4612,-71.1419,28.11,75,37,8.7,TC,1699863391
168,znamenskoye,57.1281,73.8282,1.11,98,100,2.74,RU,1699863391
169,namsos,64.4662,11.4957,-0.97,74,0,6.69,NO,1699863391
170,carnarvon,-24.8667,113.6333,23.04,65,11,6.44,AU,1699863392
171,tokar,18.4254,37.729,33.69,41,10,7.61,SD,1699863392
172,windhoek,-22.5594,17.0832,31.73,19,72,1.34,NA,1699863306
173,queenstown,-31.8976,26.8753,18.32,36,0,2.45,ZA,1699863273
174,new norfolk,-42.7826,147.0587,17.72,56,22,3.23,AU,1699863392
175,xam nua,20.4197,104.0439,17.92,99,100,1.52,LA,1699863393
176,tyazhinskiy,56.116,88.524,1.77,97,100,5.55,RU,1699863393
177,pokrovsk,48.282,37.1758,8.45,65,100,6.53,UA,1699863393
178,codrington,-38.2667,141.9667,14.13,63,32,5.91,AU,1699863393
179,nelson bay,-32.7167,152.15,21.16,72,40,3.58,AU,1699863394
180,baiti,13.745,-14.7482,25.88,26,41,2.83,SN,1699863394
181,nizhnevartovsk,60.9344,76.5531,-1.99,86,75,5.0,RU,1699863394
182,enid,36.3956,-97.8784,9.09,84,0,2.57,US,1699863394
183,kuanda,56.3161,116.0806,-14.13,89,100,0.38,RU,1699863394
184,vostochnyy,55.8167,37.8667,3.19,89,100,6.34,RU,1699863395
185,ulladulla,-35.35,150.4667,18.76,65,25,2.16,AU,1699863395
186,axim,4.8699,-2.2405,27.68,80,2,1.71,GH,1699863395
187,saint george,37.1041,-113.5841,14.12,23,0,1.54,US,1699863395
188,nanning,22.8167,108.3167,13.25,73,100,4.14,CN,1699863396
189,kingston,17.997,-76.7936,29.53,70,20,5.66,JM,1699863396
190,pailon,-17.65,-62.75,28.5,52,100,6.02,BO,1699863396
191,the pas,53.8251,-101.2541,-0.99,93,0,5.14,CA,1699863396
192,el granada,37.5027,-122.4694,14.52,86,100,1.54,US,1699863397
193,marco island,25.9363,-81.7157,23.32,91,100,4.12,US,1699863397
194,freetown,8.484,-13.2299,26.89,84,44,1.21,SL,1699863397
195,vadso,70.0744,29.7487,-4.91,86,75,9.26,NO,1699863398
196,college,64.8569,-147.8028,-6.78,85,100,3.6,US,1699863398
197,kuybyshev,55.4475,78.3218,3.09,79,88,4.24,RU,1699863398
198,laguna,38.421,-121.4238,14.49,76,0,2.06,US,1699863398
199,betio village,1.358,172.9211,29.02,77,96,2.63,KI,1699863399
200,callao,-12.0667,-77.15,20.95,88,100,2.06,PE,1699863399
201,madara,11.7798,10.4479,29.19,12,64,5.98,NG,1699863399
202,al bayda,32.7627,21.7551,18.28,67,17,6.81,LY,1699863399
203,kapa'a,22.0752,-159.319,26.18,79,40,11.32,US,1699863400
204,punta arenas,-53.15,-70.9167,8.06,66,100,7.72,CL,1699863358
205,grand falls-windsor,48.9332,-55.6649,-1.94,85,11,2.36,CA,1699863154
206,harstad,68.799,16.5293,-2.44,77,25,2.68,NO,1699863401
207,aripuana,-9.1667,-60.6333,23.44,89,40,0.62,BR,1699863401
208,ust'-kut,56.7938,105.7672,-8.09,74,100,1.79,RU,1699863402
209,sitangkai,4.6628,119.3928,28.8,71,29,4.28,PH,1699863402
210,enewetak,11.3474,162.3373,28.39,80,100,8.24,MH,1699863402
211,kodiak,57.79,-152.4072,0.73,75,75,0.0,US,1699863402
212,kaa-khem,51.6833,94.7333,-10.33,80,100,0.38,RU,1699863403
213,selfoss,63.9331,-20.9971,2.25,58,91,6.51,IS,1699863403
214,ulsteinvik,62.3432,5.8487,3.75,80,2,3.58,NO,1699863203
215,kiunga,-6.1219,141.2906,28.4,66,87,0.65,PG,1699863403
216,panshan,41.1881,122.0494,2.0,42,0,2.24,CN,1699863404
217,remire-montjoly,4.9167,-52.2667,26.33,83,16,4.28,GF,1699863404
218,opuwo,-18.0607,13.84,31.14,18,18,0.71,NA,1699863404
219,sandakan,5.8402,118.1179,29.82,74,40,3.09,MY,1699863404
220,alenquer,-1.9417,-54.7383,25.27,70,17,1.74,BR,1699863405
221,fale old settlement,-9.3852,-171.2468,28.89,75,100,2.89,TK,1699863405
222,zwedru,6.0667,-8.1281,24.21,93,100,0.6,LR,1699863322
223,crane,31.3974,-102.3501,12.9,88,99,2.73,US,1699863405
224,minas de marcona,-15.2119,-75.1103,13.89,94,90,5.47,PE,1699863405
225,pacific grove,36.6177,-121.9166,13.9,86,100,2.57,US,1699863406
226,wladyslawowo,54.7909,18.4009,7.74,82,82,3.4,PL,1699863406
227,mabini,15.6,120.9833,29.55,68,32,4.56,PH,1699863406
228,jayapura,-2.5333,140.7,28.66,90,94,2.96,ID,1699863406
229,linxia chengguanzhen,35.6003,103.2064,8.38,35,3,1.72,CN,1699863407
230,beinamar,8.6698,15.3813,26.08,67,99,2.66,TD,1699863407
231,dolinsk,47.35,142.8,-1.82,83,100,3.4,RU,1699863407
232,luganville,-15.5333,167.1667,24.78,82,100,6.29,VU,1699863407
233,alice springs,-23.7,133.8833,32.75,27,75,5.66,AU,1699863407
234,alofi,-19.0595,-169.9187,22.94,94,100,6.17,NU,1699863323
235,chateaubourg,48.1112,-1.4002,16.25,87,100,10.38,FR,1699863408
236,tofol,5.3248,163.0078,26.79,81,100,4.45,FM,1699863408
237,charters towers,-20.1,146.2667,28.82,35,0,9.92,AU,1699863408
238,kovalam,8.3667,76.9967,31.05,74,75,2.57,IN,1699863409
239,ufa,54.775,56.0375,3.65,80,100,2.68,RU,1699863172
240,utrik,11.2278,169.8474,27.84,83,76,9.37,MH,1699863409
241,lihue,21.9789,-159.3672,25.77,73,40,11.32,US,1699863409
242,bodaybo,57.8506,114.1933,-14.83,93,100,0.11,RU,1699863409
243,saldanha,-33.0117,17.9442,25.03,61,100,5.83,ZA,1699863410
244,taoudenni,22.6783,-3.9836,25.38,22,5,5.31,ML,1699863410
245,thorne,53.6112,-0.9631,10.12,95,100,8.31,GB,1699863410
246,ebeltoft,56.1944,10.6821,6.46,93,75,0.51,DK,1699863410
247,severo-yeniseyskiy,60.3725,93.0408,-4.12,98,100,0.89,RU,1699863411
248,vorkuta,67.5,64.0,-14.84,99,64,1.89,RU,1699863411
249,susuman,62.7833,148.1667,-31.64,98,68,0.39,RU,1699863411
250,tadine,-21.55,167.8833,21.7,69,92,7.98,NC,1699863411
251,bardai,11.65,7.2333,26.03,16,41,7.19,NG,1699863412
252,madalena,41.2162,-8.3345,17.32,92,97,2.54,PT,1699863412
253,motueka,-41.1333,173.0167,14.07,74,1,2.09,NZ,1699863412
254,pombas,17.1503,-25.0201,22.88,75,96,3.79,CV,1699863412
255,udachny,66.4167,112.4,-10.86,85,100,3.29,RU,1699863413
256,galliano,29.4422,-90.2992,18.33,89,100,5.21,US,1699863413
257,belyy yar,53.6039,91.3903,-4.06,74,100,0.0,RU,1699863413
258,uyuni,-20.4597,-66.825,9.16,36,100,3.69,BO,1699863413
259,payakumbuh,-0.2202,100.6308,28.27,76,100,0.32,ID,1699863414
260,road town,18.4167,-64.6167,27.05,75,27,8.0,VG,1699863211
261,uzgen,40.7699,73.3007,12.16,37,8,2.01,KG,1699863414
262,manado,1.487,124.8455,28.43,78,40,2.57,ID,1699863414
263,hobyo,5.3505,48.5268,28.04,75,100,5.38,SO,1699863415
264,ilhabela,-23.7781,-45.3581,24.04,95,49,2.35,BR,1699863415
265,colonia,50.9333,6.95,10.41,92,100,5.14,DE,1699863206
266,thinadhoo,0.5333,72.9333,28.04,74,40,4.61,MV,1699863415
267,ishim,56.1128,69.4902,3.35,82,95,3.58,RU,1699863416
268,nagqu,31.5,92.0,2.13,20,2,8.07,CN,1699863416
269,rehoboth,-23.3167,17.0833,30.67,22,9,2.96,NA,1699863416
270,xuddur,4.1213,43.8894,29.63,55,49,7.02,SO,1699863416
271,lebu,-37.6167,-73.65,6.59,79,4,5.31,CL,1699863416
272,naze,28.3667,129.4833,16.51,65,91,7.98,JP,1699863417
273,luis correia,-2.8792,-41.6669,25.26,82,12,5.26,BR,1699863417
274,keflavik,64.0049,-22.5624,3.95,65,0,10.29,IS,1699863417
275,bilajer,40.5681,50.0378,16.9,77,40,9.26,AZ,1699863417
276,ghat,24.9647,10.1728,20.23,32,0,2.39,LY,1699863418
277,vuktyl,63.8567,57.3094,-8.27,96,97,1.79,RU,1699863418
278,carrigaline,51.8117,-8.3986,9.86,81,20,9.26,IE,1699863418
279,littlefield,33.9173,-102.3249,9.34,87,100,2.37,US,1699863418
280,khlung,12.4547,102.2214,34.18,59,99,3.38,TH,1699863418
281,tura,25.5198,90.2201,27.39,51,0,1.33,IN,1699863419
282,general conesa,-40.1,-64.4333,9.98,26,0,5.19,AR,1699863136
283,san antonio de pale,-1.4014,5.6325,26.38,82,37,4.0,GQ,1699863419
284,coari,-4.085,-63.1414,24.8,85,90,1.12,BR,1699863419
285,lovington,32.944,-103.3485,9.62,99,100,1.18,US,1699863420
286,aldinga beach,-35.2793,138.4604,21.47,62,100,6.02,AU,1699863420
287,erenhot,43.6475,111.9767,-0.8,31,76,2.27,CN,1699863420
288,chunian,30.964,73.9803,26.72,23,49,1.9,PK,1699863420
289,hulan,45.9833,126.6,-7.94,91,6,3.37,CN,1699863420
290,la junta,37.985,-103.5438,2.16,38,0,0.0,US,1699863362
291,haiku-pauwela,20.9219,-156.3051,24.47,75,20,7.72,US,1699863421
292,saint-louis,16.3333,-15.0,26.36,15,68,3.44,SN,1699863421
293,hamada,34.8833,132.0833,7.4,75,96,2.08,JP,1699863421
294,sola,-13.8833,167.55,26.06,80,100,12.39,VU,1699863422
295,birsk,55.4211,55.5428,3.31,81,100,8.61,RU,1699863422
296,hawaiian paradise park,19.5933,-154.9731,22.24,95,100,1.54,US,1699863172
297,mandan,46.8267,-100.8896,6.09,76,0,3.6,US,1699863422
298,garhiyasin,27.9069,68.511,29.01,12,41,1.1,PK,1699863423
299,santyoku,37.4406,129.1708,7.28,35,0,3.07,KR,1699863423
300,inhuma,-6.6683,-41.7078,21.88,44,4,1.4,BR,1699863423
301,kimbe,-5.5502,150.1429,26.7,76,98,0.27,PG,1699863423
302,sorong,-0.8833,131.25,29.5,73,84,2.53,ID,1699863424
303,knyaze-volkonskoye,48.4642,135.4567,-4.81,95,100,1.71,RU,1699863424
304,puerto san jose,13.9256,-90.8244,24.68,86,33,2.71,GT,1699863424
305,celestun,20.8667,-90.4,24.37,86,5,4.26,MX,1699863424
306,akjoujt,19.6969,-14.4164,23.56,13,0,3.38,MR,1699863425
307,basco,20.4487,121.9702,26.38,73,100,14.87,PH,1699863425
308,omuo-ekiti,7.7583,5.7223,26.57,66,87,1.16,NG,1699863425
309,ciudad madero,22.2667,-97.8333,19.47,90,100,2.08,MX,1699863143
310,acapulco de juarez,16.8634,-99.8901,27.9,78,75,2.06,MX,1699863340
311,calama,-22.4667,-68.9333,9.27,31,0,6.69,CL,1699863417
312,flying fish cove,-10.4217,105.6791,27.82,74,75,4.63,CX,1699863426
313,north elba,44.2434,-73.9543,-7.12,72,1,1.06,US,1699863426
314,iskateley,67.6803,53.1512,-11.66,94,66,2.24,RU,1699863426
315,cooma,-36.2333,149.1333,17.75,45,1,3.08,AU,1699863427
316,ballina,-28.8667,153.5667,19.88,80,98,5.95,AU,1699863366
317,chake chake,-5.2459,39.7666,28.78,72,40,2.56,TZ,1699863427
318,finote selam,10.7,37.2667,22.91,57,40,1.15,ET,1699863427
319,chuhuyiv,49.8359,36.688,7.58,72,100,6.89,UA,1699863428
320,anatuya,-28.4606,-62.8347,14.33,63,100,5.89,AR,1699863428
321,martakert,40.2104,46.821,23.83,24,21,2.13,AZ,1699863428
322,afif,23.9065,42.9172,26.02,28,96,6.65,SA,1699863428
323,ebon,4.582,168.6964,28.52,79,100,2.82,MH,1699863429
324,kalevala,65.2,31.1667,-4.95,93,97,3.58,RU,1699863429
325,margate,51.3813,1.3862,14.06,96,100,4.47,GB,1699863429
326,feodosiya,45.0333,35.3833,14.02,53,58,0.55,UA,1699863429
327,namdrik,5.5994,168.1028,28.26,81,100,3.95,MH,1699863430
328,sathupalli,17.2497,80.869,30.28,51,62,1.65,IN,1699863430
329,puerto armuelles,8.2833,-82.8667,27.27,84,100,3.13,PA,1699863430
330,i-n-salah,27.1935,2.4607,22.03,32,0,5.2,DZ,1699863430
331,isheyevka,54.4167,48.2667,8.76,82,100,8.66,RU,1699863431
332,peace river,56.2501,-117.286,-0.83,100,75,3.09,CA,1699863431
333,skadovs'k,46.1161,32.9112,10.97,63,13,1.88,UA,1699863431
334,argostolion,38.1811,20.489,20.97,59,40,6.17,GR,1699863431
335,shendi,16.6915,33.4341,34.85,24,15,1.97,SD,1699863432
336,kolyvan',55.3053,82.7391,3.79,95,100,5.21,RU,1699863432
337,darwin,-12.4611,130.8418,30.5,69,75,4.12,AU,1699863192
338,khombole,14.7667,-16.7,23.45,22,19,3.6,SN,1699863432
339,dunedin,-45.8742,170.5036,12.11,84,100,0.45,NZ,1699863433
340,phuthaditjhaba,-28.5242,28.8158,21.04,38,3,1.92,ZA,1699863433
341,tual,-5.6667,132.75,28.15,76,38,4.79,ID,1699863433
342,la passe,45.5549,-0.8967,16.1,86,100,6.02,FR,1699863434
343,kirs,59.3388,52.2447,0.87,97,100,5.31,RU,1699863434
344,tucurui,-3.7661,-49.6725,24.99,73,59,2.57,BR,1699863434
345,st. john's,47.5649,-52.7093,-1.17,78,100,3.6,CA,1699863316
346,greeneville,36.1632,-82.831,7.22,72,100,0.0,US,1699863415
347,al kharijah,25.4514,30.5464,29.51,34,58,5.9,EG,1699863435
348,carolina beach,34.0352,-77.8936,11.15,83,100,6.28,US,1699863435
349,zhosaly,45.4878,64.0781,8.83,63,1,2.74,KZ,1699863435
350,nizhniy odes,63.6445,54.856,-5.34,91,100,3.72,RU,1699863436
351,hirara,24.8,125.2833,21.15,60,75,10.8,JP,1699863436
352,hamilton,39.1834,-84.5333,5.95,77,0,0.0,US,1699863436
353,namibe,-15.1961,12.1522,26.25,64,9,3.57,AO,1699863436
354,hailar,49.2,119.7,-11.35,93,6,2.93,CN,1699863437
355,maun,-19.9833,23.4167,35.1,16,65,3.25,BW,1699863437
356,pisco,-13.7,-76.2167,18.03,88,19,0.0,PE,1699863437
357,buka,40.8108,69.1986,13.62,31,87,1.07,UZ,1699863437
358,vernon,50.2581,-119.2691,5.16,79,100,0.51,CA,1699863318
359,berber,18.0216,33.983,34.62,29,9,3.02,SD,1699863438
360,ghanzi,-21.5667,21.7833,32.56,16,16,5.46,BW,1699863438
361,hassi messaoud,31.6804,6.0729,15.92,51,0,1.03,DZ,1699863438
362,cabo san lucas,22.8909,-109.9124,25.84,73,70,2.52,MX,1699863219
363,sittwe,20.15,92.9,28.18,71,46,4.18,MM,1699863439
364,horsham,51.064,-0.3272,15.11,96,75,6.69,GB,1699863439
365,taltal,-25.4,-70.4833,15.32,80,29,0.95,CL,1699863381
366,warrnambool,-38.3833,142.4833,13.81,67,44,5.72,AU,1699863440
367,sandnessjoen,66.0217,12.6316,-2.94,80,0,1.03,NO,1699863440
368,sirpur,19.4833,79.6,31.22,41,100,1.51,IN,1699863440
369,kenton,38.9501,-84.5333,5.62,70,0,0.0,US,1699863441
370,adam,22.3756,57.5233,30.12,22,0,0.33,OM,1699863441
371,shingu,33.7333,135.9833,9.39,69,1,3.12,JP,1699863441
372,bozeman,45.6796,-111.0386,7.32,52,0,0.0,US,1699863189
373,alo,7.4178,6.7371,28.34,74,57,1.42,NG,1699863442
374,floro,61.5996,5.0328,5.54,70,0,3.6,NO,1699863442
375,la'ie,21.6477,-157.9253,25.98,75,100,6.26,US,1699863442
376,chibougamau,49.9168,-74.3659,-7.21,93,100,5.14,CA,1699863442
377,champerico,14.3,-91.9167,26.38,83,11,2.2,GT,1699863442
378,natal,-5.795,-35.2094,22.12,94,20,2.06,BR,1699863410
379,san patricio,28.017,-97.5169,17.69,97,100,4.95,US,1699863443
380,shijiang,27.0819,110.7933,7.46,83,100,0.85,CN,1699863443
381,happy valley-goose bay,53.3168,-60.3315,-2.83,68,75,3.6,CA,1699863444
382,brisas de zicatela,15.8369,-97.0419,26.25,77,35,1.91,MX,1699863444
383,newnham,-41.3833,147.1333,17.59,55,0,8.75,AU,1699863444
384,banda aceh,5.5577,95.3222,29.25,73,94,5.6,ID,1699863445
385,zemio,5.0314,25.1361,27.57,71,98,0.82,CF,1699863445
386,sydney,-33.8679,151.2073,20.69,65,75,4.63,AU,1699863186
387,tamanrasset,22.785,5.5228,21.95,16,0,1.03,DZ,1699863446
388,afaahiti,-17.75,-149.2833,24.93,82,42,1.8,PF,1699863446
389,simanggang,1.2472,111.4528,32.99,62,40,1.54,MY,1699863446
390,exu,-7.5119,-39.7242,20.2,54,0,1.64,BR,1699863446
391,dhuusamarreeb,5.535,46.3861,31.2,53,81,8.02,SO,1699863447
392,kargopol',61.5071,38.9456,0.75,97,100,4.65,RU,1699863447
393,saint-pierre,-21.3393,55.4781,26.82,69,0,6.69,RE,1699863447
394,kirensk,57.7853,108.1119,-7.24,69,100,2.24,RU,1699863447
395,turaif,31.6725,38.6637,23.14,21,0,5.14,SA,1699863448
396,dryden,49.7833,-92.7503,3.16,81,100,7.2,CA,1699863448
397,listowel,52.4464,-9.485,11.03,87,57,11.41,IE,1699863448
398,greenfield,42.9614,-88.0126,7.99,65,0,4.12,US,1699863448
399,tibu,8.639,-72.7358,24.01,99,100,0.96,CO,1699863449
400,weil im schonbuch,48.6227,9.0636,10.26,87,100,1.54,DE,1699863449
401,coquimbo,-29.9533,-71.3436,11.85,87,0,1.54,CL,1699863449
402,santanyi,39.3546,3.1291,19.34,83,7,4.42,ES,1699863449
403,copala,16.65,-98.9833,25.53,89,66,1.83,MX,1699863450
404,souillac,-20.5167,57.5167,27.21,65,75,3.6,MU,1699863450
405,lensk,60.7253,114.9278,-9.16,90,100,3.62,RU,1699863450
406,kindu,-2.95,25.95,24.23,88,100,0.79,CD,1699863450
407,nizhnesortymskiy,62.4397,71.7603,-9.9,90,6,4.31,RU,1699863451
408,campo do brito,-10.7333,-37.4933,18.79,94,7,0.97,BR,1699863451
409,fernie,49.5,-115.0687,-0.89,85,100,1.19,CA,1699863189
410,cobija,-11.0267,-68.7692,23.6,85,2,1.31,BO,1699863386
411,cidreira,-30.1811,-50.2056,20.21,98,99,1.45,BR,1699863452
412,bouar,5.934,15.596,21.86,87,100,1.37,CF,1699863452
413,caleta de carquin,-11.0925,-77.6267,19.02,89,37,3.74,PE,1699863452
414,puerto ayacucho,5.6639,-67.6236,24.43,93,87,1.46,VE,1699863452
415,ambon,-3.6954,128.1814,31.08,66,40,3.09,ID,1699863453
416,kudymkar,59.0173,54.656,0.39,97,100,6.18,RU,1699863453
417,ixtapa,20.7,-105.2,26.24,85,100,1.5,MX,1699863453
418,tahe,52.3333,124.7333,-6.12,58,5,1.95,CN,1699863453
419,pitimbu,-7.4706,-34.8086,22.33,82,31,2.28,BR,1699863454
420,antonio enes,-16.2325,39.9086,30.91,59,0,4.45,MZ,1699863454
421,kununurra,-15.7667,128.7333,26.99,89,89,3.6,AU,1699863454
422,rodolfo sanchez taboada,31.7167,-116.5667,16.63,39,0,1.38,MX,1699863454
423,nemuro,43.3236,145.575,4.03,55,89,3.66,JP,1699863455
424,iguatemi,-23.6803,-54.5611,26.24,49,43,3.17,BR,1699863455
425,vila franca do campo,37.7167,-25.4333,19.23,99,99,3.88,PT,1699863455
426,biharamulo,-2.6319,31.3089,22.93,70,54,2.16,TZ,1699863455
427,mogadishu,2.0371,45.3438,29.16,69,63,3.0,SO,1699863455
428,lagunillas,10.1301,-71.2595,27.23,86,100,3.41,VE,1699863456
429,carutapera,-1.195,-46.02,25.45,80,0,3.09,BR,1699863456
430,mazamari,-11.3258,-74.5308,21.53,94,37,0.62,PE,1699863456
431,jumla,29.2747,82.1838,17.71,33,1,2.72,NP,1699863456
432,colares,38.7992,-9.4469,18.32,96,75,3.13,PT,1699863457
433,misratah,32.3754,15.0925,23.03,58,0,5.14,LY,1699863457
434,qamdo,31.1667,97.2333,2.87,20,0,0.88,CN,1699863457
435,tynda,55.1667,124.7167,-12.33,93,80,1.36,RU,1699863457
436,hilo,19.7297,-155.09,22.36,96,100,1.54,US,1699863458
437,vicuna,-30.0319,-70.7081,7.85,54,19,0.31,CL,1699863458
438,ishigaki,24.3448,124.1572,21.07,64,75,8.75,JP,1699863458
439,yokote,39.3,140.5667,5.09,78,99,4.79,JP,1699863459
440,porbandar,21.6422,69.6093,31.29,27,99,3.47,IN,1699863459
441,kangding,30.0513,101.9603,12.25,50,100,0.42,CN,1699863459
442,barra de santo antonio,-9.4047,-35.5072,21.6,79,74,2.39,BR,1699863459
443,simojovel de allende,17.2,-92.6333,17.6,98,20,0.89,MX,1699863459
444,ubari,26.5921,12.7805,20.32,40,0,2.11,LY,1699863345
445,ji'an,27.1172,114.9793,11.18,54,100,3.87,CN,1699863460
446,chonchi,-42.6128,-73.8092,7.84,97,99,2.43,CL,1699863460
447,ceerigaabo,10.6162,47.368,22.25,37,7,3.3,SO,1699863460
448,kidal,18.4411,1.4078,27.23,11,0,5.69,ML,1699863461
449,angaur state,6.906,134.13,28.81,77,100,4.45,PW,1699863461
450,tangalle,6.024,80.7911,30.09,82,100,1.61,LK,1699863364
451,fort mcmurray,56.7268,-111.381,-5.23,100,0,2.06,CA,1699863461
452,shalya,57.2471,58.7298,2.51,77,100,3.74,RU,1699863462
453,grajau,-5.8194,-46.1386,22.55,66,100,2.02,BR,1699863362
454,patong,7.8961,98.2966,31.68,67,100,2.78,TH,1699863462
455,aginskoye,51.1,114.53,-4.22,72,54,1.64,RU,1699863462
456,santa elena de uairen,4.6167,-61.1333,18.92,87,92,1.71,VE,1699863462
457,pokrovka,42.3414,78.0056,2.76,78,100,1.06,KG,1699863463
458,ola,59.5833,151.2833,-13.91,67,62,5.52,RU,1699863463
459,ohara,35.25,140.3833,12.5,41,0,5.29,JP,1699863463
460,hellin,38.5106,-1.701,14.32,73,49,1.94,ES,1699863464
461,onega,63.9061,38.1404,-2.88,87,100,6.18,RU,1699863464
462,wulingyuan,29.3494,110.5441,10.24,62,91,0.67,CN,1699863464
463,aban,56.67,96.06,-0.38,94,100,4.41,RU,1699863464
464,constitucion,-35.3333,-72.4167,7.72,70,1,2.97,CL,1699863465
465,daru,-9.0763,143.2092,26.1,71,91,4.39,PG,1699863465
466,canto do buriti,-8.11,-42.9444,22.43,40,5,1.44,BR,1699863465
467,antalaha,-14.9003,50.2788,28.05,61,0,4.46,MG,1699863465
468,broome,42.2506,-75.833,-1.79,84,0,0.0,US,1699863466
469,nyurba,63.2842,118.3319,-13.52,97,100,1.69,RU,1699863466
470,rabo de peixe,37.8,-25.5833,18.73,99,40,1.79,PT,1699863466
471,ostersund,63.1792,14.6357,-5.22,93,100,2.06,SE,1699863466
472,port douglas,-16.4833,145.4667,24.74,68,99,5.16,AU,1699863467
473,urangan,-25.3,152.9,22.96,73,0,7.38,AU,1699863467
474,la libertad,-2.2333,-80.9,22.98,85,100,4.61,EC,1699863467
475,princeville,45.7668,-61.2985,2.58,94,100,0.0,CA,1699863467
476,kamaishi,39.2667,141.8833,6.16,68,4,3.74,JP,1699863468
477,goz beida,13.95,20.55,33.03,22,88,5.72,TD,1699863468
478,murun-kuren,49.6342,100.1625,-3.27,39,24,0.97,MN,1699863468
479,north bend,43.4065,-124.2243,11.07,100,100,3.09,US,1699863470
480,labuan,5.2767,115.2417,31.2,74,20,2.06,MY,1699863470
481,guiuan,11.0333,125.7247,29.13,74,63,6.41,PH,1699863471
482,corumba,-19.0092,-57.6533,27.5,56,51,1.28,BR,1699863471
483,sinop,41.7711,34.8709,13.24,74,100,2.63,TR,1699863270
484,pyin oo lwin,22.0333,96.4667,24.07,74,82,1.55,MM,1699863471
485,ouadda,8.0777,22.4007,26.65,71,43,1.53,CF,1699863472
486,siyabuswa,-25.1132,29.0445,26.63,42,0,7.65,ZA,1699863472
487,nar'yan-mar,67.6713,53.087,-11.61,94,68,2.24,RU,1699863472
488,las heras,-46.5419,-68.9359,7.2,56,13,13.83,AR,1699863472
489,mansa,29.9833,75.3833,27.44,21,18,1.51,IN,1699863473
490,huanan,46.2167,130.5167,-7.07,86,8,8.18,CN,1699863473
491,tshabong,-26.05,22.45,29.67,12,0,2.79,BW,1699863473
492,puerto cabezas,14.0351,-83.3888,25.47,91,100,3.3,NI,1699863473
493,zhumysker,49.3333,49.4,11.84,55,100,7.8,KZ,1699863474
494,grand baie,-20.0182,57.5802,28.03,58,0,1.79,MU,1699863474
495,new plymouth,-39.0667,174.0833,11.84,67,16,4.13,NZ,1699863475
496,jijiga,9.35,42.8,24.77,44,17,6.53,ET,1699863475
497,chichimila,20.6167,-88.2167,21.88,100,41,1.26,MX,1699863475
498,acarau,-2.8856,-40.12,25.52,81,16,6.2,BR,1699863408
499,ferrol,43.4832,-8.2369,19.84,90,100,8.95,ES,1699863416
500,matthew town,20.95,-73.6667,27.55,80,9,7.83,BS,1699863476
501,freising,48.4035,11.7488,11.24,90,40,6.69,DE,1699863476
502,san juan,-31.5375,-68.5364,10.84,31,0,2.87,AR,1699863316
503,kyzyl-suu,42.3414,78.0056,2.76,78,100,1.06,KG,1699863477
504,meadow lakes,61.6247,-149.6011,-0.45,90,100,1.54,US,1699863477
505,wotje,9.4543,170.2367,28.05,82,100,8.43,MH,1699863477
506,mitu,1.1983,-70.1733,22.3,99,24,1.21,CO,1699863477
507,tagiura,32.8817,13.3506,22.83,51,60,3.51,LY,1699863478
508,vilyuchinsk,52.9306,158.4028,-2.26,86,72,2.55,RU,1699863478
509,sao jose da coroa grande,-8.8978,-35.1478,23.94,80,55,1.1,BR,1699863478
510,fukagawa,43.7081,142.0392,1.03,98,100,1.41,JP,1699863478
511,lorengau,-2.0226,147.2712,27.12,77,55,0.99,PG,1699863479
512,brookings,44.3114,-96.7984,3.43,57,0,3.09,US,1699863479
513,pandan,14.0453,124.1694,27.3,85,88,7.15,PH,1699863479
514,bethanie,-26.4833,17.15,28.64,10,0,4.07,NA,1699863479
515,buala,-8.145,159.5921,26.62,81,100,2.46,SB,1699863480
516,penzance,50.1186,-5.5371,13.38,82,20,12.35,GB,1699863480
517,aleg,17.0481,-13.9209,26.89,13,67,3.37,MR,1699863480
518,richards bay,-28.783,32.0377,19.99,74,97,1.94,ZA,1699863481
519,puerto colombia,10.9878,-74.9547,26.05,87,100,2.58,CO,1699863481
520,tafuna,-14.3358,-170.72,27.97,89,20,2.06,AS,1699863481
521,swakopmund,-22.6833,14.5333,17.82,73,42,4.09,NA,1699863359
522,corinto,37.9407,22.9573,18.83,83,65,2.61,GR,1699863482
523,moranbah,-22.0016,148.0466,31.68,20,0,6.42,AU,1699863483
524,limuru,-1.1,36.65,18.13,81,98,4.09,KE,1699863483
525,hollymead,38.1171,-78.4417,4.51,82,0,0.0,US,1699863483
526,castillos,-34.1667,-53.8333,16.25,81,100,5.57,UY,1699863483
527,santa eularia des riu,38.9846,1.5341,18.9,90,0,0.0,ES,1699863484
528,cheyenne,41.14,-104.8203,3.94,41,0,4.92,US,1699863426
529,kita,13.0349,-9.4895,25.19,18,0,1.76,ML,1699863484
530,fisterra,42.9049,-9.2629,19.3,95,100,12.85,ES,1699863484
531,mejit,10.2753,170.8646,28.02,84,83,8.84,MH,1699863485
532,andergrove,-21.0833,149.1833,25.91,58,0,3.66,AU,1699863485
533,sade,11.3595,10.6732,29.36,12,100,5.91,NG,1699863485
534,neverkino,52.7854,46.7417,9.04,80,100,8.46,RU,1699863486
535,douglas,41.3,-96.167,9.17,65,0,2.57,US,1699863486
536,nantucket,41.2835,-70.0995,3.41,73,75,1.54,US,1699863396
537,aleksandrovsk-sakhalinskiy,50.8975,142.1561,-8.02,81,100,5.45,RU,1699863487
538,turbat,26.0023,63.044,31.83,10,100,5.89,PK,1699863487
539,sarh,9.1429,18.3923,27.03,68,99,2.18,TD,1699863485
540,guerrero negro,27.9769,-114.0611,18.64,45,0,1.89,MX,1699863487
541,yatou,37.15,122.3833,7.17,52,86,4.74,CN,1699863488
542,bereznik,62.8551,42.7072,-0.41,95,100,5.92,RU,1699863488
543,coxen hole,16.3244,-86.5366,27.11,78,97,4.86,HN,1699863231
544,yuzhno-kurilsk,44.0306,145.8556,2.43,80,29,2.08,RU,1699863488
545,semikarakorsk,47.5194,40.8112,9.48,67,62,7.35,RU,1699863489
546,nizhneudinsk,54.9076,99.0276,-0.56,78,97,0.61,RU,1699863489
547,bovalino,38.149,16.174,20.19,67,66,3.28,IT,1699863489
548,beyneu,45.3167,55.2,11.23,40,100,10.65,KZ,1699863490
549,lamu,-2.2717,40.902,30.12,70,76,2.61,KE,1699863490
550,soe,-9.8607,124.284,27.69,45,30,3.94,ID,1699863490
551,saint-die-des-vosges,48.2833,6.95,12.99,95,100,7.32,FR,1699863462
552,vodnyy,63.5046,53.4095,-6.99,90,100,4.63,RU,1699863491
553,ust-nera,64.5667,143.2,-27.18,99,99,1.14,RU,1699863492
554,tabou,4.423,-7.3528,26.88,81,16,2.39,CI,1699863492
555,amga,60.8953,131.9608,-19.86,100,100,1.48,RU,1699863493
556,rio grande,-32.035,-52.0986,17.19,94,100,5.12,BR,1699863493
557,morehead city,34.7229,-76.726,11.66,84,0,6.17,US,1699863490
558,shakawe,-18.3667,21.85,35.72,20,41,1.34,BW,1699863494
559,skrunda,56.6833,22.0167,6.08,82,98,4.26,LV,1699863494
560,ouesso,1.6136,16.0517,26.98,75,90,1.45,CG,1699863494
561,itoman,26.1247,127.6694,21.01,60,75,9.26,JP,1699863495
562,karratha,-20.7377,116.8463,28.9,44,7,9.76,AU,1699863495
563,pariaman,-0.619,100.12,28.03,89,100,3.36,ID,1699863495
564,rurrenabaque,-14.4413,-67.5278,24.69,72,16,0.75,BO,1699863496
565,yulinshi,38.2906,109.7494,4.03,25,6,2.13,CN,1699863497
566,boyolangu,-8.1181,111.8935,29.64,66,54,4.93,ID,1699863497
567,castelnuovo del garda,45.4388,10.7598,7.41,93,0,2.06,IT,1699863498
568,orenburg,51.7727,55.0988,5.03,61,100,6.78,RU,1699863498
